[{"id": "HC_v0TxyQyvHt595crwQZw", "alias": "the-greatest-bbq-missouri-city", "name": "The Greatest BBQ", "image_url": "https://s3-media3.fl.yelpcdn.com/bphoto/5Af1lHAjYs42eGpdKfRuOg/o.jpg", "is_closed": false, "url": "https://www.yelp.com/biz/the-greatest-bbq-missouri-city?adjust_creative=rZiFgfUX1eajVOVygdFykg&utm_campaign=yelp_api_v3&utm_medium=api_v3_business_search&utm_source=rZiFgfUX1eajVOVygdFykg", "review_count": 17, "categories": [{"alias": "bbq", "title": "Barbeque"}], "rating": 4.0, "coordinates": {"latitude": 29.5943214, "longitude": -95.5268349}, "transactions": ["pickup", "delivery"], "location": {"address1": "2304-2428 Texas Pkwy", "address2": "", "address3": null, "city": "Missouri City", "zip_code": "77489", "country": "US", "state": "TX", "display_address": ["2304-2428 Texas Pkwy", "Missouri City, TX 77489"]}, "phone": "+12812612264", "display_phone": "(281) 261-2264", "distance": 8376.697776622754}, {"id": "2Gun8_aVi3zpEj12VFf6YA", "alias": "papa-nick-s-fresno", "name": "Papa Nick\u2019s", "image_url": "", "is_closed": false, "url": "https://www.yelp.com/biz/papa-nick-s-fresno?adjust_creative=rZiFgfUX1eajVOVygdFykg&utm_campaign=yelp_api_v3&utm_medium=api_v3_business_search&utm_source=rZiFgfUX1eajVOVygdFykg", "review_count": 1, "categories": [{"alias": "bbq", "title": "Barbeque"}, {"alias": "salad", "title": "Salad"}], "rating": 5.0, "coordinates": {"latitude": 29.53606, "longitude": -95.47645}, "transactions": [], "location": {"address1": "1514 B Trammel", "address2": "", "address3": null, "city": "Fresno", "zip_code": "77545", "country": "US", "state": "TX", "display_address": ["1514 B Trammel", "Fresno, TX 77545"]}, "phone": "+18329160227", "display_phone": "(832) 916-0227", "distance": 660.3751000390654}, {"id": "4-TxcY8ZgNquIqMWuWFrCg", "alias": "seven-seeds-texas-barbecue-rosharon-2", "name": "Seven Seeds Texas Barbecue", "image_url": "https://s3-media1.fl.yelpcdn.com/bphoto/9odk3xPpz-dxfC1MJB6k_Q/o.jpg", "is_closed": false, "url": "https://www.yelp.com/biz/seven-seeds-texas-barbecue-rosharon-2?adjust_creative=rZiFgfUX1eajVOVygdFykg&utm_campaign=yelp_api_v3&utm_medium=api_v3_business_search&utm_source=rZiFgfUX1eajVOVygdFykg", "review_count": 21, "categories": [{"alias": "bbq", "title": "Barbeque"}, {"alias": "foodtrucks", "title": "Food Trucks"}], "rating": 4.0, "coordinates": {"latitude": 29.5429847, "longitude": -95.4174946}, "transactions": ["pickup", "delivery"], "location": {"address1": "3040 Cr 48", "address2": "", "address3": null, "city": "Rosharon", "zip_code": "77583", "country": "US", "state": "TX", "display_address": ["3040 Cr 48", "Rosharon, TX 77583"]}, "phone": "+12816150496", "display_phone": "(281) 615-0496", "distance": 5096.971198799551}, {"id": "CJcm3JmMQhDUF0wclPu2AQ", "alias": "slow-smoked-meats-missouri-city", "name": "Slow Smoked Meats", "image_url": "https://s3-media2.fl.yelpcdn.com/bphoto/-VzlgjFpSvtnATnqG6mb4A/o.jpg", "is_closed": false, "url": "https://www.yelp.com/biz/slow-smoked-meats-missouri-city?adjust_creative=rZiFgfUX1eajVOVygdFykg&utm_campaign=yelp_api_v3&utm_medium=api_v3_business_search&utm_source=rZiFgfUX1eajVOVygdFykg", "review_count": 1, "categories": [{"alias": "catering", "title": "Caterers"}, {"alias": "bbq", "title": "Barbeque"}], "rating": 5.0, "coordinates": {"latitude": 29.60216, "longitude": -95.50744}, "transactions": [], "location": {"address1": null, "address2": null, "address3": "", "city": "Missouri City", "zip_code": "77489", "country": "US", "state": "TX", "display_address": ["Missouri City, TX 77489"]}, "phone": "+13463101372", "display_phone": "(346) 310-1372", "distance": 7320.022095879072}, {"id": "jx7VXB5oUE1RnSKs4zFUHw", "alias": "big-horn-bbq-pearland", "name": "Big Horn BBQ", "image_url": "https://s3-media3.fl.yelpcdn.com/bphoto/SAvHCd1z4hiZkq5RrjoXFQ/o.jpg", "is_closed": false, "url": "https://www.yelp.com/biz/big-horn-bbq-pearland?adjust_creative=rZiFgfUX1eajVOVygdFykg&utm_campaign=yelp_api_v3&utm_medium=api_v3_business_search&utm_source=rZiFgfUX1eajVOVygdFykg", "review_count": 336, "categories": [{"alias": "bbq", "title": "Barbeque"}, {"alias": "breakfast_brunch", "title": "Breakfast & Brunch"}, {"alias": "burgers", "title": "Burgers"}], "rating": 3.0, "coordinates": {"latitude": 29.5692407905726, "longitude": -95.3854281600273}, "transactions": ["delivery"], "price": "$$", "location": {"address1": "2300 Smith Ranch Rd", "address2": "", "address3": "", "city": "Pearland", "zip_code": "77584", "country": "US", "state": "TX", "display_address": ["2300 Smith Ranch Rd", "Pearland, TX 77584"]}, "phone": "+12817413289", "display_phone": "(281) 741-3289", "distance": 8888.390692177121}, {"id": "uHF2wLqsesoVqh0lyHXUBw", "alias": "texas-biergarten-missouri-city", "name": "Texas Biergarten", "image_url": "https://s3-media4.fl.yelpcdn.com/bphoto/Fgy60WHuqwLBc4bHbdeOdA/o.jpg", "is_closed": false, "url": "https://www.yelp.com/biz/texas-biergarten-missouri-city?adjust_creative=rZiFgfUX1eajVOVygdFykg&utm_campaign=yelp_api_v3&utm_medium=api_v3_business_search&utm_source=rZiFgfUX1eajVOVygdFykg", "review_count": 284, "categories": [{"alias": "german", "title": "German"}, {"alias": "gastropubs", "title": "Gastropubs"}], "rating": 4.5, "coordinates": {"latitude": 29.562035, "longitude": -95.562823}, "transactions": ["delivery"], "price": "$$", "location": {"address1": "6302 Hwy 6", "address2": "Ste Q", "address3": null, "city": "Missouri City", "zip_code": "77459", "country": "US", "state": "TX", "display_address": ["6302 Hwy 6", "Ste Q", "Missouri City, TX 77459"]}, "phone": "+12817780030", "display_phone": "(281) 778-0030", "distance": 9400.384008423416}, {"id": "ihHp3_rxOrx-HTp1kg7z0w", "alias": "remos-cafe-houston", "name": "ReMo's Cafe", "image_url": "https://s3-media1.fl.yelpcdn.com/bphoto/Xf31syNJszfoEcL-zHaBEg/o.jpg", "is_closed": false, "url": "https://www.yelp.com/biz/remos-cafe-houston?adjust_creative=rZiFgfUX1eajVOVygdFykg&utm_campaign=yelp_api_v3&utm_medium=api_v3_business_search&utm_source=rZiFgfUX1eajVOVygdFykg", "review_count": 81, "categories": [{"alias": "bbq", "title": "Barbeque"}, {"alias": "soulfood", "title": "Soul Food"}, {"alias": "seafood", "title": "Seafood"}], "rating": 4.5, "coordinates": {"latitude": 29.621766, "longitude": -95.508692}, "transactions": ["pickup", "delivery"], "location": {"address1": "8420 S Sam Houston Pkwy W", "address2": "Ste 260", "address3": "", "city": "Houston", "zip_code": "77085", "country": "US", "state": "TX", "display_address": ["8420 S Sam Houston Pkwy W", "Ste 260", "Houston, TX 77085"]}, "phone": "+18326995800", "display_phone": "(832) 699-5800", "distance": 10082.899510905045}, {"id": "tf-LwW5wcyCEGw4mIWEhrw", "alias": "boogies-chicago-style-bbq-missouri-city-2", "name": "Boogie's Chicago Style BBQ", "image_url": "https://s3-media3.fl.yelpcdn.com/bphoto/J-Yg6HnrJ8JJvbVDzS2xgQ/o.jpg", "is_closed": false, "url": "https://www.yelp.com/biz/boogies-chicago-style-bbq-missouri-city-2?adjust_creative=rZiFgfUX1eajVOVygdFykg&utm_campaign=yelp_api_v3&utm_medium=api_v3_business_search&utm_source=rZiFgfUX1eajVOVygdFykg", "review_count": 138, "categories": [{"alias": "bbq", "title": "Barbeque"}, {"alias": "burgers", "title": "Burgers"}, {"alias": "foodtrucks", "title": "Food Trucks"}], "rating": 3.5, "coordinates": {"latitude": 29.600604, "longitude": -95.5259907}, "transactions": ["pickup", "delivery"], "price": "$", "location": {"address1": "1767 Texas Pkwy", "address2": null, "address3": null, "city": "Missouri City", "zip_code": "77489", "country": "US", "state": "TX", "display_address": ["1767 Texas Pkwy", "Missouri City, TX 77489"]}, "phone": "+12819698626", "display_phone": "(281) 969-8626", "distance": 8864.474895858997}, {"id": "3G9HjbFXeQCGba7nGUPqoA", "alias": "skeets-barbeque-pearland", "name": "Skeets Barbeque", "image_url": "https://s3-media3.fl.yelpcdn.com/bphoto/bw23HhXbhrrOTVxLeGkJ2w/o.jpg", "is_closed": false, "url": "https://www.yelp.com/biz/skeets-barbeque-pearland?adjust_creative=rZiFgfUX1eajVOVygdFykg&utm_campaign=yelp_api_v3&utm_medium=api_v3_business_search&utm_source=rZiFgfUX1eajVOVygdFykg", "review_count": 132, "categories": [{"alias": "bbq", "title": "Barbeque"}, {"alias": "bars", "title": "Bars"}], "rating": 3.0, "coordinates": {"latitude": 29.55443126406246, "longitude": -95.37821464261722}, "transactions": ["delivery"], "price": "$$", "location": {"address1": "10228 Broadway St", "address2": "Ste 144", "address3": "", "city": "Pearland", "zip_code": "77584", "country": "US", "state": "TX", "display_address": ["10228 Broadway St", "Ste 144", "Pearland, TX 77584"]}, "phone": "+17134360012", "display_phone": "(713) 436-0012", "distance": 9056.534921550476}, {"id": "HjHjZnRqXYE5_jRwV4pPrQ", "alias": "bonchon-pearland-6", "name": "Bonchon", "image_url": "https://s3-media4.fl.yelpcdn.com/bphoto/_JgCWcTl3W6nBHoxGIqwzg/o.jpg", "is_closed": false, "url": "https://www.yelp.com/biz/bonchon-pearland-6?adjust_creative=rZiFgfUX1eajVOVygdFykg&utm_campaign=yelp_api_v3&utm_medium=api_v3_business_search&utm_source=rZiFgfUX1eajVOVygdFykg", "review_count": 309, "categories": [{"alias": "chicken_wings", "title": "Chicken Wings"}, {"alias": "korean", "title": "Korean"}, {"alias": "asianfusion", "title": "Asian Fusion"}], "rating": 3.5, "coordinates": {"latitude": 29.55288834, "longitude": -95.39432629}, "transactions": ["pickup", "delivery"], "price": "$$", "location": {"address1": "11200 Broadway St", "address2": "Ste 360", "address3": "", "city": "Pearland", "zip_code": "77584", "country": "US", "state": "TX", "display_address": ["11200 Broadway St", "Ste 360", "Pearland, TX 77584"]}, "phone": "+13464105167", "display_phone": "(346) 410-5167", "distance": 7497.781280277555}, {"id": "xkqqY29BviSEtSZeFzc2cg", "alias": "big-mammas-home-cooking-missouri-city", "name": "Big Mammas Home Cooking", "image_url": "https://s3-media4.fl.yelpcdn.com/bphoto/Cywt_eiALg-21feZtX7D_Q/o.jpg", "is_closed": false, "url": "https://www.yelp.com/biz/big-mammas-home-cooking-missouri-city?adjust_creative=rZiFgfUX1eajVOVygdFykg&utm_campaign=yelp_api_v3&utm_medium=api_v3_business_search&utm_source=rZiFgfUX1eajVOVygdFykg", "review_count": 58, "categories": [{"alias": "soulfood", "title": "Soul Food"}, {"alias": "southern", "title": "Southern"}, {"alias": "bars", "title": "Bars"}], "rating": 3.5, "coordinates": {"latitude": 29.540765589379852, "longitude": -95.53857085561629}, "transactions": ["pickup", "delivery"], "location": {"address1": "8731 Hwy 6", "address2": "Ste 100", "address3": "", "city": "Missouri City", "zip_code": "77459", "country": "US", "state": "TX", "display_address": ["8731 Hwy 6", "Ste 100", "Missouri City, TX 77459"]}, "phone": "+18324402984", "display_phone": "(832) 440-2984", "distance": 6660.500362658872}, {"id": "xPUTiVph-0PTYL-NAxAvGA", "alias": "old-hickory-inn-missouri-city", "name": "Old Hickory Inn", "image_url": "https://s3-media1.fl.yelpcdn.com/bphoto/rVMKy_GvFuYhejM7DUto5w/o.jpg", "is_closed": false, "url": "https://www.yelp.com/biz/old-hickory-inn-missouri-city?adjust_creative=rZiFgfUX1eajVOVygdFykg&utm_campaign=yelp_api_v3&utm_medium=api_v3_business_search&utm_source=rZiFgfUX1eajVOVygdFykg", "review_count": 83, "categories": [{"alias": "bbq", "title": "Barbeque"}], "rating": 3.5, "coordinates": {"latitude": 29.571845, "longitude": -95.564201}, "transactions": ["pickup", "delivery"], "price": "$$", "location": {"address1": "3334 Fm 1092 Rd", "address2": "Ste 400", "address3": "", "city": "Missouri City", "zip_code": "77459", "country": "US", "state": "TX", "display_address": ["3334 Fm 1092 Rd", "Ste 400", "Missouri City, TX 77459"]}, "phone": "+12814998904", "display_phone": "(281) 499-8904", "distance": 9891.253375417915}, {"id": "Oj8Xo2iICHS245ShLqCDKw", "alias": "brookstreet-bbq-missouri-city", "name": "Brookstreet BBQ", "image_url": "https://s3-media2.fl.yelpcdn.com/bphoto/fUlsgXsVIj86KTiyOhr20A/o.jpg", "is_closed": false, "url": "https://www.yelp.com/biz/brookstreet-bbq-missouri-city?adjust_creative=rZiFgfUX1eajVOVygdFykg&utm_campaign=yelp_api_v3&utm_medium=api_v3_business_search&utm_source=rZiFgfUX1eajVOVygdFykg", "review_count": 76, "categories": [{"alias": "catering", "title": "Caterers"}, {"alias": "bbq", "title": "Barbeque"}, {"alias": "southern", "title": "Southern"}], "rating": 3.0, "coordinates": {"latitude": 29.55328, "longitude": -95.55441}, "transactions": ["pickup", "delivery"], "price": "$$", "location": {"address1": "7232 Hwy 6", "address2": null, "address3": null, "city": "Missouri City", "zip_code": "77459", "country": "US", "state": "TX", "display_address": ["7232 Hwy 6", "Missouri City, TX 77459"]}, "phone": "+12814033050", "display_phone": "(281) 403-3050", "distance": 8380.590474233177}, {"id": "wsKIenu9_hhUR00sKonHeA", "alias": "jacos-bbq-houston", "name": "Jacos BBQ", "image_url": "https://s3-media2.fl.yelpcdn.com/bphoto/sprj1zUM2k8t-H6SOv_nKw/o.jpg", "is_closed": false, "url": "https://www.yelp.com/biz/jacos-bbq-houston?adjust_creative=rZiFgfUX1eajVOVygdFykg&utm_campaign=yelp_api_v3&utm_medium=api_v3_business_search&utm_source=rZiFgfUX1eajVOVygdFykg", "review_count": 8, "categories": [{"alias": "bbq", "title": "Barbeque"}, {"alias": "desserts", "title": "Desserts"}, {"alias": "sandwiches", "title": "Sandwiches"}], "rating": 4.5, "coordinates": {"latitude": 29.6209926, "longitude": -95.44565}, "transactions": ["pickup", "delivery"], "location": {"address1": "14151 Hiram Clarke", "address2": null, "address3": "", "city": "Houston", "zip_code": "77045", "country": "US", "state": "TX", "display_address": ["14151 Hiram Clarke", "Houston, TX 77045"]}, "phone": "+17135712332", "display_phone": "(713) 571-2332", "distance": 9561.815457520399}, {"id": "8T4cBurFqvBc0saj31PKpw", "alias": "kountry-bbq-houston", "name": "Kountry BBQ", "image_url": "https://s3-media2.fl.yelpcdn.com/bphoto/AskFy8Ry4t2xlZpFk4LtQA/o.jpg", "is_closed": false, "url": "https://www.yelp.com/biz/kountry-bbq-houston?adjust_creative=rZiFgfUX1eajVOVygdFykg&utm_campaign=yelp_api_v3&utm_medium=api_v3_business_search&utm_source=rZiFgfUX1eajVOVygdFykg", "review_count": 1, "categories": [{"alias": "bbq", "title": "Barbeque"}, {"alias": "breakfast_brunch", "title": "Breakfast & Brunch"}, {"alias": "sandwiches", "title": "Sandwiches"}], "rating": 3.0, "coordinates": {"latitude": 29.59253, "longitude": -95.42819}, "transactions": [], "location": {"address1": "14636 Almeda Rd", "address2": "", "address3": null, "city": "Houston", "zip_code": "77053", "country": "US", "state": "TX", "display_address": ["14636 Almeda Rd", "Houston, TX 77053"]}, "phone": "+17134922192", "display_phone": "(713) 492-2192", "distance": 7291.120164777402}, {"id": "aTBVjbZUj2dIqxKXeSccYg", "alias": "omg-baked-potatoes-houston", "name": "OMG Baked Potatoes", "image_url": "https://s3-media2.fl.yelpcdn.com/bphoto/yz8mGwYE9B8TzbvbGohuiA/o.jpg", "is_closed": false, "url": "https://www.yelp.com/biz/omg-baked-potatoes-houston?adjust_creative=rZiFgfUX1eajVOVygdFykg&utm_campaign=yelp_api_v3&utm_medium=api_v3_business_search&utm_source=rZiFgfUX1eajVOVygdFykg", "review_count": 286, "categories": [{"alias": "soulfood", "title": "Soul Food"}, {"alias": "foodtrucks", "title": "Food Trucks"}], "rating": 4.5, "coordinates": {"latitude": 29.62659, "longitude": -95.46429}, "transactions": ["delivery"], "price": "$$", "location": {"address1": "13815 South Post Oak Rd", "address2": "", "address3": "", "city": "Houston", "zip_code": "77045", "country": "US", "state": "TX", "display_address": ["13815 South Post Oak Rd", "Houston, TX 77045"]}, "phone": "+18328194664", "display_phone": "(832) 819-4664", "distance": 9942.472017410642}, {"id": "EmREQPA2Qcwklm-sIeVHsQ", "alias": "hungry-farmer-bar-b-q-houston-3", "name": "Hungry Farmer Bar-B-Q", "image_url": "https://s3-media3.fl.yelpcdn.com/bphoto/tyNqDqyVoegFedB3Ipnwlg/o.jpg", "is_closed": false, "url": "https://www.yelp.com/biz/hungry-farmer-bar-b-q-houston-3?adjust_creative=rZiFgfUX1eajVOVygdFykg&utm_campaign=yelp_api_v3&utm_medium=api_v3_business_search&utm_source=rZiFgfUX1eajVOVygdFykg", "review_count": 84, "categories": [{"alias": "bbq", "title": "Barbeque"}, {"alias": "desserts", "title": "Desserts"}, {"alias": "tradamerican", "title": "American (Traditional)"}], "rating": 3.5, "coordinates": {"latitude": 29.615284, "longitude": -95.465497}, "transactions": ["pickup", "delivery"], "price": "$$", "location": {"address1": "14530 S Post Oak Rd", "address2": "", "address3": "", "city": "Houston", "zip_code": "77045", "country": "US", "state": "TX", "display_address": ["14530 S Post Oak Rd", "Houston, TX 77045"]}, "phone": "+17134131388", "display_phone": "(713) 413-1388", "distance": 8642.505679312699}, {"id": "E8WKbtxI7fziouCkbR5inA", "alias": "sambal-chef-pearland", "name": "Sambal Chef", "image_url": "https://s3-media2.fl.yelpcdn.com/bphoto/-zpcaJzBm0VZb02KrhJEEA/o.jpg", "is_closed": false, "url": "https://www.yelp.com/biz/sambal-chef-pearland?adjust_creative=rZiFgfUX1eajVOVygdFykg&utm_campaign=yelp_api_v3&utm_medium=api_v3_business_search&utm_source=rZiFgfUX1eajVOVygdFykg", "review_count": 88, "categories": [{"alias": "malaysian", "title": "Malaysian"}, {"alias": "seafood", "title": "Seafood"}, {"alias": "noodles", "title": "Noodles"}], "rating": 4.5, "coordinates": {"latitude": 29.55721, "longitude": -95.37095}, "transactions": ["pickup", "delivery"], "price": "$$", "location": {"address1": "9721 Broadway St", "address2": "Ste 103", "address3": null, "city": "Pearland", "zip_code": "77584", "country": "US", "state": "TX", "display_address": ["9721 Broadway St", "Ste 103", "Pearland, TX 77584"]}, "phone": "+12817410806", "display_phone": "(281) 741-0806", "distance": 9805.719621321243}, {"id": "QjzBi1OflDi4HJ3P_P86qA", "alias": "r-and-r-bar-b-que-missouri-city", "name": "R&R Bar B Que", "image_url": "https://s3-media4.fl.yelpcdn.com/bphoto/XRNmDHNvtE9K-ecivSyXqw/o.jpg", "is_closed": false, "url": "https://www.yelp.com/biz/r-and-r-bar-b-que-missouri-city?adjust_creative=rZiFgfUX1eajVOVygdFykg&utm_campaign=yelp_api_v3&utm_medium=api_v3_business_search&utm_source=rZiFgfUX1eajVOVygdFykg", "review_count": 30, "categories": [{"alias": "bbq", "title": "Barbeque"}, {"alias": "sandwiches", "title": "Sandwiches"}, {"alias": "seafood", "title": "Seafood"}], "rating": 3.0, "coordinates": {"latitude": 29.60082, "longitude": -95.50795633119506}, "transactions": ["pickup", "delivery"], "price": "$", "location": {"address1": "15502 Fondren Rd", "address2": "", "address3": "", "city": "Missouri City", "zip_code": "77489", "country": "US", "state": "TX", "display_address": ["15502 Fondren Rd", "Missouri City, TX 77489"]}, "phone": "+12814313777", "display_phone": "(281) 431-3777", "distance": 7937.717998074808}, {"id": "5E-qo4gYjEtqSaPBV-sE6w", "alias": "goode-company-bbq-hall-of-flame-stafford-2", "name": "Goode Company BBQ Hall of Flame", "image_url": "https://s3-media4.fl.yelpcdn.com/bphoto/2XkoIfQA1_OQ7IL21azcyA/o.jpg", "is_closed": false, "url": "https://www.yelp.com/biz/goode-company-bbq-hall-of-flame-stafford-2?adjust_creative=rZiFgfUX1eajVOVygdFykg&utm_campaign=yelp_api_v3&utm_medium=api_v3_business_search&utm_source=rZiFgfUX1eajVOVygdFykg", "review_count": 4, "categories": [{"alias": "bbq", "title": "Barbeque"}, {"alias": "giftshops", "title": "Gift Shops"}], "rating": 3.0, "coordinates": {"latitude": 29.6229857, "longitude": -95.5695604}, "transactions": [], "location": {"address1": "13843 N Promenade", "address2": "Ste 900", "address3": "", "city": "Stafford", "zip_code": "77477", "country": "US", "state": "TX", "display_address": ["13843 N Promenade", "Ste 900", "Stafford, TX 77477"]}, "phone": "+18006273502", "display_phone": "(800) 627-3502", "distance": 13359.745018326457}, {"id": "Pqi7GsShW3ylezupM_rPHg", "alias": "harvest-market-missouri-city", "name": "Harvest Market", "image_url": "https://s3-media4.fl.yelpcdn.com/bphoto/t9iaDUoGxO8jB9yWp2_i9w/o.jpg", "is_closed": false, "url": "https://www.yelp.com/biz/harvest-market-missouri-city?adjust_creative=rZiFgfUX1eajVOVygdFykg&utm_campaign=yelp_api_v3&utm_medium=api_v3_business_search&utm_source=rZiFgfUX1eajVOVygdFykg", "review_count": 65, "categories": [{"alias": "grocery", "title": "Grocery"}, {"alias": "food_court", "title": "Food Court"}], "rating": 3.5, "coordinates": {"latitude": 29.51549, "longitude": -95.52942}, "transactions": [], "location": {"address1": "4603 Sienna Pkwy", "address2": "", "address3": null, "city": "Missouri City", "zip_code": "77459", "country": "US", "state": "TX", "display_address": ["4603 Sienna Pkwy", "Missouri City, TX 77459"]}, "phone": "+12817787280", "display_phone": "(281) 778-7280", "distance": 6287.9433964991495}, {"id": "REq51FF-uHLrjvoxbHKKMg", "alias": "the-burger-barn-manvel", "name": "The Burger Barn", "image_url": "https://s3-media1.fl.yelpcdn.com/bphoto/pdKyB2Kw-3Zw8WncCbWWBQ/o.jpg", "is_closed": false, "url": "https://www.yelp.com/biz/the-burger-barn-manvel?adjust_creative=rZiFgfUX1eajVOVygdFykg&utm_campaign=yelp_api_v3&utm_medium=api_v3_business_search&utm_source=rZiFgfUX1eajVOVygdFykg", "review_count": 320, "categories": [{"alias": "burgers", "title": "Burgers"}, {"alias": "mexican", "title": "Mexican"}, {"alias": "hotdog", "title": "Hot Dogs"}], "rating": 3.5, "coordinates": {"latitude": 29.4741815200436, "longitude": -95.3762699108638}, "transactions": ["delivery", "pickup"], "price": "$$", "location": {"address1": "19405 Hwy 6", "address2": "", "address3": "", "city": "Manvel", "zip_code": "77578", "country": "US", "state": "TX", "display_address": ["19405 Hwy 6", "Manvel, TX 77578"]}, "phone": "+12814893200", "display_phone": "(281) 489-3200", "distance": 11476.013761078104}, {"id": "QgcquPO-CfGyn95zoV9JjA", "alias": "burgerim-missouri-city", "name": "BurgerIM", "image_url": "https://s3-media1.fl.yelpcdn.com/bphoto/docdc2CyE1NW4Ag1KtrYQg/o.jpg", "is_closed": false, "url": "https://www.yelp.com/biz/burgerim-missouri-city?adjust_creative=rZiFgfUX1eajVOVygdFykg&utm_campaign=yelp_api_v3&utm_medium=api_v3_business_search&utm_source=rZiFgfUX1eajVOVygdFykg", "review_count": 34, "categories": [{"alias": "burgers", "title": "Burgers"}], "rating": 3.5, "coordinates": {"latitude": 29.47028, "longitude": -95.47488}, "transactions": ["delivery", "pickup"], "location": {"address1": "9101 Sienna Crossing Dr", "address2": "Ste 800", "address3": null, "city": "Missouri City", "zip_code": "77459", "country": "US", "state": "TX", "display_address": ["9101 Sienna Crossing Dr", "Ste 800", "Missouri City, TX 77459"]}, "phone": "+18323212847", "display_phone": "(832) 321-2847", "distance": 6126.560218168739}, {"id": "QwzgmrTA6mEnSChG-wbkQA", "alias": "fish-city-grill-pearland", "name": "Fish City Grill", "image_url": "https://s3-media2.fl.yelpcdn.com/bphoto/tKL0aw5cTOUjIEK8T78d0A/o.jpg", "is_closed": false, "url": "https://www.yelp.com/biz/fish-city-grill-pearland?adjust_creative=rZiFgfUX1eajVOVygdFykg&utm_campaign=yelp_api_v3&utm_medium=api_v3_business_search&utm_source=rZiFgfUX1eajVOVygdFykg", "review_count": 368, "categories": [{"alias": "seafood", "title": "Seafood"}, {"alias": "fishnchips", "title": "Fish & Chips"}, {"alias": "tradamerican", "title": "American (Traditional)"}], "rating": 4.0, "coordinates": {"latitude": 29.553147269312216, "longitude": -95.39422250431798}, "transactions": ["delivery"], "price": "$$", "location": {"address1": "11200 Broadway St", "address2": "Ste 380", "address3": "", "city": "Pearland", "zip_code": "77584", "country": "US", "state": "TX", "display_address": ["11200 Broadway St", "Ste 380", "Pearland, TX 77584"]}, "phone": "+17133401493", "display_phone": "(713) 340-1493", "distance": 7514.11899216591}, {"id": "m0izmwddpOLRWMgqfXCaGw", "alias": "bombshells-restaurant-and-bar-pearland", "name": "Bombshells Restaurant & Bar", "image_url": "https://s3-media3.fl.yelpcdn.com/bphoto/wPmSneAsqnLhWnu5QOubDQ/o.jpg", "is_closed": false, "url": "https://www.yelp.com/biz/bombshells-restaurant-and-bar-pearland?adjust_creative=rZiFgfUX1eajVOVygdFykg&utm_campaign=yelp_api_v3&utm_medium=api_v3_business_search&utm_source=rZiFgfUX1eajVOVygdFykg", "review_count": 232, "categories": [{"alias": "sportsbars", "title": "Sports Bars"}, {"alias": "tradamerican", "title": "American (Traditional)"}], "rating": 2.5, "coordinates": {"latitude": 29.592331, "longitude": -95.385111}, "transactions": ["delivery"], "price": "$$", "location": {"address1": "13965 South Fwy", "address2": "", "address3": null, "city": "Pearland", "zip_code": "77584", "country": "US", "state": "TX", "display_address": ["13965 South Fwy", "Pearland, TX 77584"]}, "phone": "+13468022609", "display_phone": "(346) 802-2609", "distance": 10205.059930348747}, {"id": "88-fHPQRkOFx55EzUxGOug", "alias": "greatest-b-b-q-missouri-city", "name": "Greatest B-B-Q", "image_url": "https://s3-media1.fl.yelpcdn.com/bphoto/96bIQNgIyCzIz2lUFYKRew/o.jpg", "is_closed": false, "url": "https://www.yelp.com/biz/greatest-b-b-q-missouri-city?adjust_creative=rZiFgfUX1eajVOVygdFykg&utm_campaign=yelp_api_v3&utm_medium=api_v3_business_search&utm_source=rZiFgfUX1eajVOVygdFykg", "review_count": 31, "categories": [{"alias": "bbq", "title": "Barbeque"}], "rating": 3.0, "coordinates": {"latitude": 29.5936155, "longitude": -95.5268372}, "transactions": ["delivery"], "price": "$$", "location": {"address1": "2358 Texas Pkwy", "address2": "", "address3": "", "city": "Missouri City", "zip_code": "77489", "country": "US", "state": "TX", "display_address": ["2358 Texas Pkwy", "Missouri City, TX 77489"]}, "phone": "+12812612264", "display_phone": "(281) 261-2264", "distance": 8328.25176025141}, {"id": "6-BO3L188E4dsocWNTWwRQ", "alias": "more-rush-arcola", "name": "More Rush", "image_url": "https://s3-media2.fl.yelpcdn.com/bphoto/zTgfkNlQyrn0Pwl-nAIGjQ/o.jpg", "is_closed": false, "url": "https://www.yelp.com/biz/more-rush-arcola?adjust_creative=rZiFgfUX1eajVOVygdFykg&utm_campaign=yelp_api_v3&utm_medium=api_v3_business_search&utm_source=rZiFgfUX1eajVOVygdFykg", "review_count": 7, "categories": [{"alias": "soulfood", "title": "Soul Food"}], "rating": 3.0, "coordinates": {"latitude": 29.5078848, "longitude": -95.4608746}, "transactions": ["delivery", "pickup"], "location": {"address1": "5243 Fm 521 Rd", "address2": "", "address3": null, "city": "Arcola", "zip_code": "77583", "country": "US", "state": "TX", "display_address": ["5243 Fm 521 Rd", "Arcola, TX 77583"]}, "phone": "+12813468300", "display_phone": "(281) 346-8300", "distance": 3468.9899089348473}, {"id": "aMalXw3fbhjiEURWeb4irw", "alias": "slim-chickens-pearland-2", "name": "Slim Chickens", "image_url": "https://s3-media2.fl.yelpcdn.com/bphoto/1LAfXk0vBTe9LNtPwFFR6w/o.jpg", "is_closed": false, "url": "https://www.yelp.com/biz/slim-chickens-pearland-2?adjust_creative=rZiFgfUX1eajVOVygdFykg&utm_campaign=yelp_api_v3&utm_medium=api_v3_business_search&utm_source=rZiFgfUX1eajVOVygdFykg", "review_count": 63, "categories": [{"alias": "southern", "title": "Southern"}, {"alias": "comfortfood", "title": "Comfort Food"}, {"alias": "tradamerican", "title": "American (Traditional)"}], "rating": 3.0, "coordinates": {"latitude": 29.5559525, "longitude": -95.3943021}, "transactions": ["delivery", "pickup"], "location": {"address1": "11131 Broadway St", "address2": null, "address3": "", "city": "Pearland", "zip_code": "77584", "country": "US", "state": "TX", "display_address": ["11131 Broadway St", "Pearland, TX 77584"]}, "phone": "+13466990150", "display_phone": "(346) 699-0150", "distance": 7719.7573986793805}, {"id": "3P5pq-su7-v7mVu-hmlxoQ", "alias": "texas-roadhouse-pearland-2", "name": "Texas Roadhouse", "image_url": "https://s3-media2.fl.yelpcdn.com/bphoto/ga-PTlY5pZrKmHnAKqw1lA/o.jpg", "is_closed": false, "url": "https://www.yelp.com/biz/texas-roadhouse-pearland-2?adjust_creative=rZiFgfUX1eajVOVygdFykg&utm_campaign=yelp_api_v3&utm_medium=api_v3_business_search&utm_source=rZiFgfUX1eajVOVygdFykg", "review_count": 303, "categories": [{"alias": "steak", "title": "Steakhouses"}, {"alias": "bbq", "title": "Barbeque"}, {"alias": "tradamerican", "title": "American (Traditional)"}], "rating": 3.0, "coordinates": {"latitude": 29.56014196414807, "longitude": -95.38647385285051}, "transactions": [], "price": "$$", "location": {"address1": "2526 Smith Ranch Rd", "address2": "", "address3": "", "city": "Pearland", "zip_code": "77584", "country": "US", "state": "TX", "display_address": ["2526 Smith Ranch Rd", "Pearland, TX 77584"]}, "phone": "+17134368444", "display_phone": "(713) 436-8444", "distance": 8442.438349031772}, {"id": "wf3jitnLT9TUt-Fvu2tE6w", "alias": "brandanis-burgers-tacos-and-brews-missouri-city", "name": "Brandani's Burgers, Tacos & Brews", "image_url": "https://s3-media3.fl.yelpcdn.com/bphoto/iZ_r9t4JCHzNI--0sOVlzw/o.jpg", "is_closed": false, "url": "https://www.yelp.com/biz/brandanis-burgers-tacos-and-brews-missouri-city?adjust_creative=rZiFgfUX1eajVOVygdFykg&utm_campaign=yelp_api_v3&utm_medium=api_v3_business_search&utm_source=rZiFgfUX1eajVOVygdFykg", "review_count": 245, "categories": [{"alias": "burgers", "title": "Burgers"}, {"alias": "tacos", "title": "Tacos"}], "rating": 4.5, "coordinates": {"latitude": 29.57096, "longitude": -95.56456}, "transactions": [], "price": "$$", "location": {"address1": "3340 Fm 1092 Rd", "address2": "Ste 180", "address3": "", "city": "Missouri City", "zip_code": "77459", "country": "US", "state": "TX", "display_address": ["3340 Fm 1092 Rd", "Ste 180", "Missouri City, TX 77459"]}, "phone": "+12819697854", "display_phone": "(281) 969-7854", "distance": 9948.936302323358}, {"id": "v3pDc-I4foQAdDMrZOezQQ", "alias": "7-eleven-houston-16", "name": "7-Eleven", "image_url": "https://s3-media2.fl.yelpcdn.com/bphoto/3pmcktU1W6Lcx21o_eUTQQ/o.jpg", "is_closed": false, "url": "https://www.yelp.com/biz/7-eleven-houston-16?adjust_creative=rZiFgfUX1eajVOVygdFykg&utm_campaign=yelp_api_v3&utm_medium=api_v3_business_search&utm_source=rZiFgfUX1eajVOVygdFykg", "review_count": 1, "categories": [{"alias": "convenience", "title": "Convenience Stores"}, {"alias": "coffee", "title": "Coffee & Tea"}, {"alias": "servicestations", "title": "Gas Stations"}], "rating": 4.0, "coordinates": {"latitude": 29.6274, "longitude": -95.38832}, "transactions": ["delivery", "pickup"], "location": {"address1": "1225 W Orem Dr", "address2": "", "address3": null, "city": "Houston", "zip_code": "77047", "country": "US", "state": "TX", "display_address": ["1225 W Orem Dr", "Houston, TX 77047"]}, "phone": "+13464539465", "display_phone": "(346) 453-9465", "distance": 12647.700586649707}, {"id": "Vg9xCWTDcrtPaPmEL9lSrA", "alias": "beef-and-bun-barbecue-houston", "name": "Beef and Bun Barbecue", "image_url": "https://s3-media2.fl.yelpcdn.com/bphoto/kJBmiCLKq5_KAzVNZHcm3w/o.jpg", "is_closed": false, "url": "https://www.yelp.com/biz/beef-and-bun-barbecue-houston?adjust_creative=rZiFgfUX1eajVOVygdFykg&utm_campaign=yelp_api_v3&utm_medium=api_v3_business_search&utm_source=rZiFgfUX1eajVOVygdFykg", "review_count": 75, "categories": [{"alias": "bbq", "title": "Barbeque"}], "rating": 3.5, "coordinates": {"latitude": 29.613944, "longitude": -95.444033}, "transactions": ["delivery"], "price": "$", "location": {"address1": "4418 W Fuqua St", "address2": "", "address3": "", "city": "Houston", "zip_code": "77045", "country": "US", "state": "TX", "display_address": ["4418 W Fuqua St", "Houston, TX 77045"]}, "phone": "+17134330623", "display_phone": "(713) 433-0623", "distance": 8849.31106639478}, {"id": "2AFXIbll-8sDgugwTH4KoQ", "alias": "chevron-missouri-city-6", "name": "Chevron", "image_url": "https://s3-media4.fl.yelpcdn.com/bphoto/w-k61hItdIAfjcxZn4G6rg/o.jpg", "is_closed": false, "url": "https://www.yelp.com/biz/chevron-missouri-city-6?adjust_creative=rZiFgfUX1eajVOVygdFykg&utm_campaign=yelp_api_v3&utm_medium=api_v3_business_search&utm_source=rZiFgfUX1eajVOVygdFykg", "review_count": 4, "categories": [{"alias": "servicestations", "title": "Gas Stations"}, {"alias": "convenience", "title": "Convenience Stores"}], "rating": 4.0, "coordinates": {"latitude": 29.61704, "longitude": -95.5352}, "transactions": ["pickup"], "location": {"address1": "503 Texas Pkwy", "address2": null, "address3": "", "city": "Missouri City", "zip_code": "77489", "country": "US", "state": "TX", "display_address": ["503 Texas Pkwy", "Missouri City, TX 77489"]}, "phone": "+12812083715", "display_phone": "(281) 208-3715", "distance": 10858.959247266052}, {"id": "7HilcIv_iUPsRCA9rVjNrw", "alias": "willies-grill-and-icehouse-pearland", "name": "Willie's Grill & Icehouse", "image_url": "https://s3-media1.fl.yelpcdn.com/bphoto/LHSHwkJmEn2VP5UeIcGfCg/o.jpg", "is_closed": false, "url": "https://www.yelp.com/biz/willies-grill-and-icehouse-pearland?adjust_creative=rZiFgfUX1eajVOVygdFykg&utm_campaign=yelp_api_v3&utm_medium=api_v3_business_search&utm_source=rZiFgfUX1eajVOVygdFykg", "review_count": 61, "categories": [{"alias": "tradamerican", "title": "American (Traditional)"}, {"alias": "burgers", "title": "Burgers"}, {"alias": "seafood", "title": "Seafood"}], "rating": 3.0, "coordinates": {"latitude": 29.56155, "longitude": -95.38462}, "transactions": ["delivery", "pickup"], "price": "$$", "location": {"address1": "2600 Smith Ranch Rd", "address2": null, "address3": "", "city": "Pearland", "zip_code": "77584", "country": "US", "state": "TX", "display_address": ["2600 Smith Ranch Rd", "Pearland, TX 77584"]}, "phone": "+13464392705", "display_phone": "(346) 439-2705", "distance": 8422.822870132051}, {"id": "OgR6PZhYNI3mUi-4sFA2ag", "alias": "tornado-burger-stafford", "name": "Tornado Burger", "image_url": "https://s3-media2.fl.yelpcdn.com/bphoto/FNf6Sv2vp7JBREXssJOQhA/o.jpg", "is_closed": false, "url": "https://www.yelp.com/biz/tornado-burger-stafford?adjust_creative=rZiFgfUX1eajVOVygdFykg&utm_campaign=yelp_api_v3&utm_medium=api_v3_business_search&utm_source=rZiFgfUX1eajVOVygdFykg", "review_count": 762, "categories": [{"alias": "burgers", "title": "Burgers"}, {"alias": "cheesesteaks", "title": "Cheesesteaks"}, {"alias": "tradamerican", "title": "American (Traditional)"}], "rating": 4.0, "coordinates": {"latitude": 29.611484, "longitude": -95.564245}, "transactions": ["delivery"], "price": "$", "location": {"address1": "505 Fm 1092 Rd", "address2": "", "address3": "", "city": "Stafford", "zip_code": "77477", "country": "US", "state": "TX", "display_address": ["505 Fm 1092 Rd", "Stafford, TX 77477"]}, "phone": "+12814033278", "display_phone": "(281) 403-3278", "distance": 12282.81918323395}, {"id": "adgWb4WZBAZxGRZnAd_edA", "alias": "stomps-burger-joint-pearland-pearland", "name": "Stomp's Burger Joint - Pearland", "image_url": "https://s3-media2.fl.yelpcdn.com/bphoto/DFI7TrVUDZeiIpw_Cg_psw/o.jpg", "is_closed": false, "url": "https://www.yelp.com/biz/stomps-burger-joint-pearland-pearland?adjust_creative=rZiFgfUX1eajVOVygdFykg&utm_campaign=yelp_api_v3&utm_medium=api_v3_business_search&utm_source=rZiFgfUX1eajVOVygdFykg", "review_count": 201, "categories": [{"alias": "burgers", "title": "Burgers"}, {"alias": "tradamerican", "title": "American (Traditional)"}], "rating": 4.0, "coordinates": {"latitude": 29.55573, "longitude": -95.41687}, "transactions": ["delivery", "pickup"], "price": "$$", "location": {"address1": "12705 Broadway St", "address2": "Ste 109", "address3": null, "city": "Pearland", "zip_code": "77584", "country": "US", "state": "TX", "display_address": ["12705 Broadway St", "Ste 109", "Pearland, TX 77584"]}, "phone": "+18322203335", "display_phone": "(832) 220-3335", "distance": 5503.9108754399585}, {"id": "Rfdf2PS-06olOeA0241nyw", "alias": "lotus-seafood-pearland-2", "name": "Lotus Seafood", "image_url": "https://s3-media2.fl.yelpcdn.com/bphoto/2_V_tYAl3-XGNA8VfKxzxQ/o.jpg", "is_closed": false, "url": "https://www.yelp.com/biz/lotus-seafood-pearland-2?adjust_creative=rZiFgfUX1eajVOVygdFykg&utm_campaign=yelp_api_v3&utm_medium=api_v3_business_search&utm_source=rZiFgfUX1eajVOVygdFykg", "review_count": 363, "categories": [{"alias": "seafood", "title": "Seafood"}], "rating": 3.5, "coordinates": {"latitude": 29.5546757341393, "longitude": -95.40182453487463}, "transactions": ["delivery"], "price": "$$", "location": {"address1": "11710 Broadway St", "address2": "Ste 128", "address3": null, "city": "Pearland", "zip_code": "77584", "country": "US", "state": "TX", "display_address": ["11710 Broadway St", "Ste 128", "Pearland, TX 77584"]}, "phone": "+12812584182", "display_phone": "(281) 258-4182", "distance": 6845.643289811331}, {"id": "EhiYaLv67OPw-WzdxlEUeA", "alias": "dona-leti-s-houston", "name": "Dona Leti\u2019s", "image_url": "https://s3-media2.fl.yelpcdn.com/bphoto/G58GaU2CISXjmXfEG3T9Tw/o.jpg", "is_closed": false, "url": "https://www.yelp.com/biz/dona-leti-s-houston?adjust_creative=rZiFgfUX1eajVOVygdFykg&utm_campaign=yelp_api_v3&utm_medium=api_v3_business_search&utm_source=rZiFgfUX1eajVOVygdFykg", "review_count": 231, "categories": [{"alias": "cocktailbars", "title": "Cocktail Bars"}, {"alias": "tacos", "title": "Tacos"}], "rating": 3.5, "coordinates": {"latitude": 29.592109, "longitude": -95.46824}, "transactions": ["delivery", "pickup"], "price": "$$", "location": {"address1": "16101 S Post Oak Rd", "address2": null, "address3": "", "city": "Houston", "zip_code": "77053", "country": "US", "state": "TX", "display_address": ["16101 S Post Oak Rd", "Houston, TX 77053"]}, "phone": "+18328583917", "display_phone": "(832) 858-3917", "distance": 6062.007533936984}, {"id": "g4474vmAgpyTqXY4U8jkqg", "alias": "churchs-chicken-fresno-2", "name": "Church's Chicken", "image_url": "https://s3-media2.fl.yelpcdn.com/bphoto/oj_sI74v60gz5GHGwDDqew/o.jpg", "is_closed": false, "url": "https://www.yelp.com/biz/churchs-chicken-fresno-2?adjust_creative=rZiFgfUX1eajVOVygdFykg&utm_campaign=yelp_api_v3&utm_medium=api_v3_business_search&utm_source=rZiFgfUX1eajVOVygdFykg", "review_count": 12, "categories": [{"alias": "hotdogs", "title": "Fast Food"}, {"alias": "chicken_wings", "title": "Chicken Wings"}], "rating": 1.5, "coordinates": {"latitude": 29.5454, "longitude": -95.4698}, "transactions": ["delivery", "pickup"], "location": {"address1": "12320 Hwy 6", "address2": "", "address3": "", "city": "Fresno", "zip_code": "77545", "country": "US", "state": "TX", "display_address": ["12320 Hwy 6", "Fresno, TX 77545"]}, "phone": "+12814315200", "display_phone": "(281) 431-5200", "distance": 866.289451346061}, {"id": "U-NkrgumG8ceYdjFqr9DCQ", "alias": "jax-burgers-fries-and-shakes-pearland-2", "name": "JAX Burgers Fries & Shakes", "image_url": "https://s3-media1.fl.yelpcdn.com/bphoto/8mtqMAGo_On0WAyJ5WMqzg/o.jpg", "is_closed": false, "url": "https://www.yelp.com/biz/jax-burgers-fries-and-shakes-pearland-2?adjust_creative=rZiFgfUX1eajVOVygdFykg&utm_campaign=yelp_api_v3&utm_medium=api_v3_business_search&utm_source=rZiFgfUX1eajVOVygdFykg", "review_count": 425, "categories": [{"alias": "burgers", "title": "Burgers"}, {"alias": "hotdog", "title": "Hot Dogs"}], "rating": 4.0, "coordinates": {"latitude": 29.57632, "longitude": -95.40555}, "transactions": ["delivery", "pickup"], "price": "$$", "location": {"address1": "12002 Shadow Creek Pkwy", "address2": "", "address3": "", "city": "Pearland", "zip_code": "77584", "country": "US", "state": "TX", "display_address": ["12002 Shadow Creek Pkwy", "Pearland, TX 77584"]}, "phone": "+17134362201", "display_phone": "(713) 436-2201", "distance": 7573.702953436709}, {"id": "BvZzEYCyjtoD9G1vFDSNaw", "alias": "longhorn-steakhouse-pearland-3", "name": "LongHorn Steakhouse", "image_url": "https://s3-media2.fl.yelpcdn.com/bphoto/RNqddoHp6e1H2mLfN3mplg/o.jpg", "is_closed": false, "url": "https://www.yelp.com/biz/longhorn-steakhouse-pearland-3?adjust_creative=rZiFgfUX1eajVOVygdFykg&utm_campaign=yelp_api_v3&utm_medium=api_v3_business_search&utm_source=rZiFgfUX1eajVOVygdFykg", "review_count": 169, "categories": [{"alias": "steak", "title": "Steakhouses"}, {"alias": "tradamerican", "title": "American (Traditional)"}, {"alias": "bbq", "title": "Barbeque"}], "rating": 3.5, "coordinates": {"latitude": 29.557522, "longitude": -95.389594}, "transactions": [], "price": "$$", "location": {"address1": "2809 Business Center Dr", "address2": "", "address3": "", "city": "Pearland", "zip_code": "77584", "country": "US", "state": "TX", "display_address": ["2809 Business Center Dr", "Pearland, TX 77584"]}, "phone": "+17133400104", "display_phone": "(713) 340-0104", "distance": 8070.059985675524}, {"id": "6IyhtBrdULyP5smHnJW_rg", "alias": "the-stuffed-baked-potato-factory-houston-3", "name": "The Stuffed Baked Potato Factory", "image_url": "https://s3-media4.fl.yelpcdn.com/bphoto/KZOUi1FTEdnP0C7Y6MdF5g/o.jpg", "is_closed": false, "url": "https://www.yelp.com/biz/the-stuffed-baked-potato-factory-houston-3?adjust_creative=rZiFgfUX1eajVOVygdFykg&utm_campaign=yelp_api_v3&utm_medium=api_v3_business_search&utm_source=rZiFgfUX1eajVOVygdFykg", "review_count": 150, "categories": [{"alias": "comfortfood", "title": "Comfort Food"}, {"alias": "sandwiches", "title": "Sandwiches"}, {"alias": "seafood", "title": "Seafood"}], "rating": 3.5, "coordinates": {"latitude": 29.6125730417702, "longitude": -95.4462454114841}, "transactions": ["delivery", "pickup"], "price": "$", "location": {"address1": "14708 Hiram Clarke Rd", "address2": "", "address3": null, "city": "Houston", "zip_code": "77053", "country": "US", "state": "TX", "display_address": ["14708 Hiram Clarke Rd", "Houston, TX 77053"]}, "phone": "+12815012270", "display_phone": "(281) 501-2270", "distance": 8641.684443150481}, {"id": "0-AVjwhFeHqxDEuJK5UpAQ", "alias": "goodies-donuts-arcola", "name": "Goodies Donuts", "image_url": "https://s3-media4.fl.yelpcdn.com/bphoto/-6KihtOUlW7K1sysTQu7jQ/o.jpg", "is_closed": false, "url": "https://www.yelp.com/biz/goodies-donuts-arcola?adjust_creative=rZiFgfUX1eajVOVygdFykg&utm_campaign=yelp_api_v3&utm_medium=api_v3_business_search&utm_source=rZiFgfUX1eajVOVygdFykg", "review_count": 13, "categories": [{"alias": "donuts", "title": "Donuts"}], "rating": 5.0, "coordinates": {"latitude": 29.48378, "longitude": -95.47007}, "transactions": ["delivery", "pickup"], "price": "$", "location": {"address1": "6911 Fm 521", "address2": "Ste 200", "address3": "", "city": "Arcola", "zip_code": "77583", "country": "US", "state": "TX", "display_address": ["6911 Fm 521", "Ste 200", "Arcola, TX 77583"]}, "phone": "+12819729347", "display_phone": "(281) 972-9347", "distance": 6011.582089081516}, {"id": "RY44YIEUpw6I7bsfeYFKFQ", "alias": "abc-amazing-blazing-catering-houston", "name": "ABC: Amazing Blazing Catering", "image_url": "https://s3-media4.fl.yelpcdn.com/bphoto/THHbJtWxYTLVL5tEM7LW1g/o.jpg", "is_closed": false, "url": "https://www.yelp.com/biz/abc-amazing-blazing-catering-houston?adjust_creative=rZiFgfUX1eajVOVygdFykg&utm_campaign=yelp_api_v3&utm_medium=api_v3_business_search&utm_source=rZiFgfUX1eajVOVygdFykg", "review_count": 5, "categories": [{"alias": "catering", "title": "Caterers"}, {"alias": "personalchefs", "title": "Personal Chefs"}, {"alias": "foodtrucks", "title": "Food Trucks"}], "rating": 2.5, "coordinates": {"latitude": 29.60739, "longitude": -95.47715}, "transactions": [], "location": {"address1": "6100 W Fuqua St", "address2": "", "address3": null, "city": "Houston", "zip_code": "77085", "country": "US", "state": "TX", "display_address": ["6100 W Fuqua St", "Houston, TX 77085"]}, "phone": "+14093004780", "display_phone": "(409) 300-4780", "distance": 7853.996952153873}, {"id": "HkWbRp6v33NP1Ye1zI8qdg", "alias": "the-halal-guys-pearland", "name": "The Halal Guys", "image_url": "https://s3-media1.fl.yelpcdn.com/bphoto/Cjk-dWvW9LaU3m1bxHMqTg/o.jpg", "is_closed": false, "url": "https://www.yelp.com/biz/the-halal-guys-pearland?adjust_creative=rZiFgfUX1eajVOVygdFykg&utm_campaign=yelp_api_v3&utm_medium=api_v3_business_search&utm_source=rZiFgfUX1eajVOVygdFykg", "review_count": 58, "categories": [{"alias": "halal", "title": "Halal"}, {"alias": "mideastern", "title": "Middle Eastern"}, {"alias": "mediterranean", "title": "Mediterranean"}], "rating": 4.0, "coordinates": {"latitude": 29.55612, "longitude": -95.38475}, "transactions": ["delivery", "pickup"], "location": {"address1": "10621 Broadway St", "address2": "Ste 109", "address3": null, "city": "Pearland", "zip_code": "77584", "country": "US", "state": "TX", "display_address": ["10621 Broadway St", "Ste 109", "Pearland, TX 77584"]}, "phone": "+18322953269", "display_phone": "(832) 295-3269", "distance": 8448.672700374816}, {"id": "ORcbuR_dK5CFqynyoSqXcA", "alias": "jimmy-changas-pearland-pearland-4", "name": "Jimmy Changas - Pearland", "image_url": "https://s3-media1.fl.yelpcdn.com/bphoto/-ym8j32f6bMI42CQeY48AA/o.jpg", "is_closed": false, "url": "https://www.yelp.com/biz/jimmy-changas-pearland-pearland-4?adjust_creative=rZiFgfUX1eajVOVygdFykg&utm_campaign=yelp_api_v3&utm_medium=api_v3_business_search&utm_source=rZiFgfUX1eajVOVygdFykg", "review_count": 345, "categories": [{"alias": "mexican", "title": "Mexican"}, {"alias": "salad", "title": "Salad"}, {"alias": "soup", "title": "Soup"}], "rating": 4.0, "coordinates": {"latitude": 29.5445396, "longitude": -95.3896028}, "transactions": ["delivery"], "price": "$$", "location": {"address1": "3515 Business Center Dr", "address2": "", "address3": null, "city": "Pearland", "zip_code": "77584", "country": "US", "state": "TX", "display_address": ["3515 Business Center Dr", "Pearland, TX 77584"]}, "phone": "+12816177812", "display_phone": "(281) 617-7812", "distance": 7798.179102533111}, {"id": "URFm4E8ajJU75UH8bf36CA", "alias": "teaze-daiquiri-lounge-missouri-city", "name": "Tea'ze Daiquiri Lounge", "image_url": "https://s3-media3.fl.yelpcdn.com/bphoto/1yOnIkkEkmml4K0_pHY9Qg/o.jpg", "is_closed": false, "url": "https://www.yelp.com/biz/teaze-daiquiri-lounge-missouri-city?adjust_creative=rZiFgfUX1eajVOVygdFykg&utm_campaign=yelp_api_v3&utm_medium=api_v3_business_search&utm_source=rZiFgfUX1eajVOVygdFykg", "review_count": 56, "categories": [{"alias": "drivethrubars", "title": "Drive-Thru Bars"}], "rating": 4.0, "coordinates": {"latitude": 29.5982381, "longitude": -95.5266451}, "transactions": ["delivery", "pickup"], "price": "$", "location": {"address1": "1975 Texas Pkwy", "address2": "", "address3": "", "city": "Missouri City", "zip_code": "77489", "country": "US", "state": "TX", "display_address": ["1975 Texas Pkwy", "Missouri City, TX 77489"]}, "phone": "+12819698301", "display_phone": "(281) 969-8301", "distance": 8625.02324545902}, {"id": "E06UEwuWaeM8LtHt0CD_Kg", "alias": "marcos-pizza-houston-13", "name": "Marco's Pizza", "image_url": "https://s3-media4.fl.yelpcdn.com/bphoto/ogcSTBv_NCHwI_EZbgRxDg/o.jpg", "is_closed": false, "url": "https://www.yelp.com/biz/marcos-pizza-houston-13?adjust_creative=rZiFgfUX1eajVOVygdFykg&utm_campaign=yelp_api_v3&utm_medium=api_v3_business_search&utm_source=rZiFgfUX1eajVOVygdFykg", "review_count": 1, "categories": [{"alias": "chicken_wings", "title": "Chicken Wings"}, {"alias": "pizza", "title": "Pizza"}, {"alias": "salad", "title": "Salad"}], "rating": 5.0, "coordinates": {"latitude": 29.59303, "longitude": -95.46775}, "transactions": ["delivery", "pickup"], "location": {"address1": "15999 S Post Oak Rd", "address2": "", "address3": null, "city": "Houston", "zip_code": "77053", "country": "US", "state": "TX", "display_address": ["15999 S Post Oak Rd", "Houston, TX 77053"]}, "phone": "+13464441300", "display_phone": "(346) 444-1300", "distance": 6165.7414242131845}, {"id": "DWuimZ8UBe0Ci7_g4F7WEw", "alias": "sonic-drive-in-fresno-3", "name": "Sonic Drive-In", "image_url": "https://s3-media3.fl.yelpcdn.com/bphoto/b1AUP-n2do_SPT0SQrKXSA/o.jpg", "is_closed": false, "url": "https://www.yelp.com/biz/sonic-drive-in-fresno-3?adjust_creative=rZiFgfUX1eajVOVygdFykg&utm_campaign=yelp_api_v3&utm_medium=api_v3_business_search&utm_source=rZiFgfUX1eajVOVygdFykg", "review_count": 3, "categories": [{"alias": "icecream", "title": "Ice Cream & Frozen Yogurt"}, {"alias": "hotdogs", "title": "Fast Food"}, {"alias": "burgers", "title": "Burgers"}], "rating": 1.0, "coordinates": {"latitude": 29.547296, "longitude": -95.444811}, "transactions": ["delivery", "pickup"], "location": {"address1": "2723 Fm 521 Rd", "address2": null, "address3": null, "city": "Fresno", "zip_code": "77545", "country": "US", "state": "TX", "display_address": ["2723 Fm 521 Rd", "Fresno, TX 77545"]}, "phone": "+12817104773", "display_phone": "(281) 710-4773", "distance": 2646.7071444228895}, {"id": "9_tUuDto7kdYeUzdbYm25w", "alias": "churchs-chicken-houston-25", "name": "Church's Chicken", "image_url": "https://s3-media1.fl.yelpcdn.com/bphoto/2_rLLK7aLBw-u2i9Deyd4w/o.jpg", "is_closed": false, "url": "https://www.yelp.com/biz/churchs-chicken-houston-25?adjust_creative=rZiFgfUX1eajVOVygdFykg&utm_campaign=yelp_api_v3&utm_medium=api_v3_business_search&utm_source=rZiFgfUX1eajVOVygdFykg", "review_count": 9, "categories": [{"alias": "hotdogs", "title": "Fast Food"}, {"alias": "chicken_wings", "title": "Chicken Wings"}], "rating": 2.0, "coordinates": {"latitude": 29.6170795, "longitude": -95.4652349}, "transactions": ["delivery"], "price": "$", "location": {"address1": "14450 S Post Oak", "address2": null, "address3": null, "city": "Houston", "zip_code": "77045", "country": "US", "state": "TX", "display_address": ["14450 S Post Oak", "Houston, TX 77045"]}, "phone": "+17134330943", "display_phone": "(713) 433-0943", "distance": 8803.06543341755}, {"id": "GdEWIj2JPTiA84aOJZuv6g", "alias": "fresh-cuisine-stafford-4", "name": "Fresh Cuisine", "image_url": "https://s3-media3.fl.yelpcdn.com/bphoto/t2r499Nc4nWXKzF1E6AHuA/o.jpg", "is_closed": false, "url": "https://www.yelp.com/biz/fresh-cuisine-stafford-4?adjust_creative=rZiFgfUX1eajVOVygdFykg&utm_campaign=yelp_api_v3&utm_medium=api_v3_business_search&utm_source=rZiFgfUX1eajVOVygdFykg", "review_count": 2, "categories": [{"alias": "personalchefs", "title": "Personal Chefs"}], "rating": 5.0, "coordinates": {"latitude": 29.612605, "longitude": -95.563029}, "transactions": ["delivery"], "location": {"address1": "445 Murphy Rd", "address2": "", "address3": null, "city": "Stafford", "zip_code": "77477", "country": "US", "state": "TX", "display_address": ["445 Murphy Rd", "Stafford, TX 77477"]}, "phone": "+12816604451", "display_phone": "(281) 660-4451", "distance": 12303.253792691912}, {"id": "q_yDbG5FcRcNevdfhqDVWQ", "alias": "churchs-chicken-manvel", "name": "Church's Chicken", "image_url": "https://s3-media3.fl.yelpcdn.com/bphoto/pRFsY32pgA3y8wlRtDGrWg/o.jpg", "is_closed": false, "url": "https://www.yelp.com/biz/churchs-chicken-manvel?adjust_creative=rZiFgfUX1eajVOVygdFykg&utm_campaign=yelp_api_v3&utm_medium=api_v3_business_search&utm_source=rZiFgfUX1eajVOVygdFykg", "review_count": 10, "categories": [{"alias": "hotdogs", "title": "Fast Food"}, {"alias": "chicken_wings", "title": "Chicken Wings"}], "rating": 3.5, "coordinates": {"latitude": 29.481281, "longitude": -95.399782}, "transactions": ["delivery"], "price": "$", "location": {"address1": "17510 Morris Ave", "address2": "", "address3": "", "city": "Manvel", "zip_code": "77578", "country": "US", "state": "TX", "display_address": ["17510 Morris Ave", "Manvel, TX 77578"]}, "phone": "+12816920000", "display_phone": "(281) 692-0000", "distance": 9228.402033965045}, {"id": "cyS_XnfQkBGvzaED79uJ0g", "alias": "dairy-queen-missouri-city-2", "name": "Dairy Queen", "image_url": "https://s3-media2.fl.yelpcdn.com/bphoto/gkLGj90vpDWSh6LBDlBngA/o.jpg", "is_closed": false, "url": "https://www.yelp.com/biz/dairy-queen-missouri-city-2?adjust_creative=rZiFgfUX1eajVOVygdFykg&utm_campaign=yelp_api_v3&utm_medium=api_v3_business_search&utm_source=rZiFgfUX1eajVOVygdFykg", "review_count": 15, "categories": [{"alias": "burgers", "title": "Burgers"}, {"alias": "hotdogs", "title": "Fast Food"}, {"alias": "icecream", "title": "Ice Cream & Frozen Yogurt"}], "rating": 2.0, "coordinates": {"latitude": 29.583272, "longitude": -95.530872}, "transactions": [], "price": "$", "location": {"address1": "1799 FM 2234", "address2": "", "address3": "", "city": "Missouri City", "zip_code": "77489", "country": "US", "state": "TX", "display_address": ["1799 FM 2234", "Missouri City, TX 77489"]}, "phone": "+12812617423", "display_phone": "(281) 261-7423", "distance": 7787.941043694482}, {"id": "seLlSwOu94vxUaz6lrgF8Q", "alias": "pizza-hut-fresno-10", "name": "Pizza Hut", "image_url": "https://s3-media4.fl.yelpcdn.com/bphoto/577x2kO591nZyBGxSQP5_Q/o.jpg", "is_closed": false, "url": "https://www.yelp.com/biz/pizza-hut-fresno-10?adjust_creative=rZiFgfUX1eajVOVygdFykg&utm_campaign=yelp_api_v3&utm_medium=api_v3_business_search&utm_source=rZiFgfUX1eajVOVygdFykg", "review_count": 41, "categories": [{"alias": "pizza", "title": "Pizza"}, {"alias": "chicken_wings", "title": "Chicken Wings"}, {"alias": "hotdogs", "title": "Fast Food"}], "rating": 1.5, "coordinates": {"latitude": 29.518908, "longitude": -95.481294}, "transactions": ["delivery"], "price": "$", "location": {"address1": "12207 State Hwy 6", "address2": "Ste F", "address3": "", "city": "Fresno", "zip_code": "77545", "country": "US", "state": "TX", "display_address": ["12207 State Hwy 6", "Ste F", "Fresno, TX 77545"]}, "phone": "+12814319602", "display_phone": "(281) 431-9602", "distance": 2360.397716518769}, {"id": "8f3FMvchTpzoUYUfpPXjtQ", "alias": "flava-wings-houston", "name": "Flava Wings", "image_url": "https://s3-media2.fl.yelpcdn.com/bphoto/Tpt9-iFbO7oI51XBcUOgiw/o.jpg", "is_closed": false, "url": "https://www.yelp.com/biz/flava-wings-houston?adjust_creative=rZiFgfUX1eajVOVygdFykg&utm_campaign=yelp_api_v3&utm_medium=api_v3_business_search&utm_source=rZiFgfUX1eajVOVygdFykg", "review_count": 139, "categories": [{"alias": "chicken_wings", "title": "Chicken Wings"}], "rating": 4.0, "coordinates": {"latitude": 29.5815446124148, "longitude": -95.4547456}, "transactions": ["delivery", "pickup"], "price": "$$", "location": {"address1": "7395 McHard Rd", "address2": "Unit 102", "address3": null, "city": "Houston", "zip_code": "77053", "country": "US", "state": "TX", "display_address": ["7395 McHard Rd", "Unit 102", "Houston, TX 77053"]}, "phone": "+12817212691", "display_phone": "(281) 721-2691", "distance": 5098.260030095037}, {"id": "huCg_x4J1I60NhSdUmfIaQ", "alias": "ten-dollar-grill-missouri-city", "name": "Ten Dollar Grill", "image_url": "https://s3-media4.fl.yelpcdn.com/bphoto/wfV-Gc8t-7sxZR2kwQk4sw/o.jpg", "is_closed": false, "url": "https://www.yelp.com/biz/ten-dollar-grill-missouri-city?adjust_creative=rZiFgfUX1eajVOVygdFykg&utm_campaign=yelp_api_v3&utm_medium=api_v3_business_search&utm_source=rZiFgfUX1eajVOVygdFykg", "review_count": 4, "categories": [{"alias": "southern", "title": "Southern"}, {"alias": "bbq", "title": "Barbeque"}, {"alias": "soulfood", "title": "Soul Food"}], "rating": 2.0, "coordinates": {"latitude": 29.58386, "longitude": -95.56366}, "transactions": [], "location": {"address1": "2447 Fm 1092 Rd", "address2": "", "address3": null, "city": "Missouri City", "zip_code": "77459", "country": "US", "state": "TX", "display_address": ["2447 Fm 1092 Rd", "Missouri City, TX 77459"]}, "phone": "+12819697286", "display_phone": "(281) 969-7286", "distance": 10427.343135941674}, {"id": "3NHyFlitsH51XjuIusX-3Q", "alias": "biryani-express-pearland-2", "name": "Biryani Express", "image_url": "https://s3-media2.fl.yelpcdn.com/bphoto/KA5y3LIGGV2OwmDsSVTfwg/o.jpg", "is_closed": false, "url": "https://www.yelp.com/biz/biryani-express-pearland-2?adjust_creative=rZiFgfUX1eajVOVygdFykg&utm_campaign=yelp_api_v3&utm_medium=api_v3_business_search&utm_source=rZiFgfUX1eajVOVygdFykg", "review_count": 267, "categories": [{"alias": "indpak", "title": "Indian"}, {"alias": "halal", "title": "Halal"}], "rating": 4.0, "coordinates": {"latitude": 29.556549, "longitude": -95.380515}, "transactions": ["delivery", "pickup"], "price": "$$", "location": {"address1": "10223 W Broadway St", "address2": "Ste U", "address3": "", "city": "Pearland", "zip_code": "77584", "country": "US", "state": "TX", "display_address": ["10223 W Broadway St", "Ste U", "Pearland, TX 77584"]}, "phone": "+17134362727", "display_phone": "(713) 436-2727", "distance": 8891.651488164583}, {"id": "LNXqrl0i4DiAHn-iPhEQuA", "alias": "pho-tan-mai-stafford", "name": "Pho Tan Mai", "image_url": "https://s3-media1.fl.yelpcdn.com/bphoto/3NgW9bgIyydo0UU3z_vaQg/o.jpg", "is_closed": false, "url": "https://www.yelp.com/biz/pho-tan-mai-stafford?adjust_creative=rZiFgfUX1eajVOVygdFykg&utm_campaign=yelp_api_v3&utm_medium=api_v3_business_search&utm_source=rZiFgfUX1eajVOVygdFykg", "review_count": 84, "categories": [{"alias": "vietnamese", "title": "Vietnamese"}], "rating": 4.0, "coordinates": {"latitude": 29.6171295, "longitude": -95.5628751}, "transactions": ["delivery"], "price": "$", "location": {"address1": "3201 S Main St", "address2": "", "address3": "", "city": "Stafford", "zip_code": "77477", "country": "US", "state": "TX", "display_address": ["3201 S Main St", "Stafford, TX 77477"]}, "phone": "+18325391348", "display_phone": "(832) 539-1348", "distance": 12616.198544915802}, {"id": "wg67E-ZM1kc9gHW9PNKDDA", "alias": "helens-kitchen-houston", "name": "Helen's Kitchen", "image_url": "https://s3-media3.fl.yelpcdn.com/bphoto/ryMGZxWAnQ6Fd7pywobLGw/o.jpg", "is_closed": false, "url": "https://www.yelp.com/biz/helens-kitchen-houston?adjust_creative=rZiFgfUX1eajVOVygdFykg&utm_campaign=yelp_api_v3&utm_medium=api_v3_business_search&utm_source=rZiFgfUX1eajVOVygdFykg", "review_count": 181, "categories": [{"alias": "caribbean", "title": "Caribbean"}], "rating": 4.5, "coordinates": {"latitude": 29.6145645410941, "longitude": -95.465389}, "transactions": ["delivery", "pickup"], "price": "$$", "location": {"address1": "14608 S Post Oak Rd", "address2": "", "address3": "", "city": "Houston", "zip_code": "77045", "country": "US", "state": "TX", "display_address": ["14608 S Post Oak Rd", "Houston, TX 77045"]}, "phone": "+17134139022", "display_phone": "(713) 413-9022", "distance": 8567.738396685163}, {"id": "-nB7nouFDL-2TWE5mNswwg", "alias": "center-court-pizza-and-brew-pearland", "name": "Center Court Pizza & Brew", "image_url": "https://s3-media3.fl.yelpcdn.com/bphoto/pvRDJfu6tglNqV9FCTzW7w/o.jpg", "is_closed": false, "url": "https://www.yelp.com/biz/center-court-pizza-and-brew-pearland?adjust_creative=rZiFgfUX1eajVOVygdFykg&utm_campaign=yelp_api_v3&utm_medium=api_v3_business_search&utm_source=rZiFgfUX1eajVOVygdFykg", "review_count": 287, "categories": [{"alias": "pizza", "title": "Pizza"}, {"alias": "sportsbars", "title": "Sports Bars"}, {"alias": "sandwiches", "title": "Sandwiches"}], "rating": 4.0, "coordinates": {"latitude": 29.55721, "longitude": -95.370956}, "transactions": ["delivery", "pickup"], "price": "$$", "location": {"address1": "9721 Broadway St", "address2": "", "address3": "", "city": "Pearland", "zip_code": "77584", "country": "US", "state": "TX", "display_address": ["9721 Broadway St", "Pearland, TX 77584"]}, "phone": "+17134363927", "display_phone": "(713) 436-3927", "distance": 9805.719621321243}, {"id": "1RG2N6NGUIftZQjdFtNJgw", "alias": "bjs-restaurant-and-brewhouse-pearland-3", "name": "BJ's Restaurant & Brewhouse", "image_url": "https://s3-media2.fl.yelpcdn.com/bphoto/RAiatR5R0pl67l4CCtcx-Q/o.jpg", "is_closed": false, "url": "https://www.yelp.com/biz/bjs-restaurant-and-brewhouse-pearland-3?adjust_creative=rZiFgfUX1eajVOVygdFykg&utm_campaign=yelp_api_v3&utm_medium=api_v3_business_search&utm_source=rZiFgfUX1eajVOVygdFykg", "review_count": 454, "categories": [{"alias": "newamerican", "title": "American (New)"}, {"alias": "breweries", "title": "Breweries"}, {"alias": "pizza", "title": "Pizza"}], "rating": 3.5, "coordinates": {"latitude": 29.554596549912585, "longitude": -95.3935295000004}, "transactions": ["delivery", "pickup"], "price": "$$", "location": {"address1": "11200 Broadway St", "address2": "Ste 1700", "address3": "", "city": "Pearland", "zip_code": "77584", "country": "US", "state": "TX", "display_address": ["11200 Broadway St", "Ste 1700", "Pearland, TX 77584"]}, "phone": "+17134367805", "display_phone": "(713) 436-7805", "distance": 7617.676838096289}, {"id": "P_vIYyi2rKiQP0RRXTZdOQ", "alias": "cracker-barrel-old-country-store-pearland-2", "name": "Cracker Barrel Old Country Store", "image_url": "https://s3-media2.fl.yelpcdn.com/bphoto/4zI8vF4gwAGFh_s1-SqflA/o.jpg", "is_closed": false, "url": "https://www.yelp.com/biz/cracker-barrel-old-country-store-pearland-2?adjust_creative=rZiFgfUX1eajVOVygdFykg&utm_campaign=yelp_api_v3&utm_medium=api_v3_business_search&utm_source=rZiFgfUX1eajVOVygdFykg", "review_count": 361, "categories": [{"alias": "breakfast_brunch", "title": "Breakfast & Brunch"}, {"alias": "tradamerican", "title": "American (Traditional)"}, {"alias": "southern", "title": "Southern"}], "rating": 2.0, "coordinates": {"latitude": 29.583497960386733, "longitude": -95.3875340000085}, "transactions": ["delivery", "pickup"], "price": "$$", "location": {"address1": "11019 Shadow Creek Pkwy", "address2": "", "address3": "", "city": "Pearland", "zip_code": "77584", "country": "US", "state": "TX", "display_address": ["11019 Shadow Creek Pkwy", "Pearland, TX 77584"]}, "phone": "+17133402701", "display_phone": "(713) 340-2701", "distance": 9453.879032063665}, {"id": "wJbD-9E7CcoKLpwvQhRlww", "alias": "fire-stone-pizza-bar-pearland-3", "name": "Fire Stone Pizza Bar", "image_url": "https://s3-media3.fl.yelpcdn.com/bphoto/co5Ey-FM2WEr38MXAz1j0A/o.jpg", "is_closed": false, "url": "https://www.yelp.com/biz/fire-stone-pizza-bar-pearland-3?adjust_creative=rZiFgfUX1eajVOVygdFykg&utm_campaign=yelp_api_v3&utm_medium=api_v3_business_search&utm_source=rZiFgfUX1eajVOVygdFykg", "review_count": 208, "categories": [{"alias": "pizza", "title": "Pizza"}, {"alias": "italian", "title": "Italian"}], "rating": 4.5, "coordinates": {"latitude": 29.556004, "longitude": -95.400454}, "transactions": ["delivery"], "price": "$$", "location": {"address1": "11625 Broadway St", "address2": "Ste 195", "address3": "", "city": "Pearland", "zip_code": "77584", "country": "US", "state": "TX", "display_address": ["11625 Broadway St", "Ste 195", "Pearland, TX 77584"]}, "phone": "+18328506677", "display_phone": "(832) 850-6677", "distance": 7014.71524298478}, {"id": "sATCrGl32U32fc4iUN3biA", "alias": "daiquiri-island-to-go-rosharon", "name": "Daiquiri Island To Go", "image_url": "https://s3-media1.fl.yelpcdn.com/bphoto/A6xn3hQPVezcIwek9Zw1lA/o.jpg", "is_closed": false, "url": "https://www.yelp.com/biz/daiquiri-island-to-go-rosharon?adjust_creative=rZiFgfUX1eajVOVygdFykg&utm_campaign=yelp_api_v3&utm_medium=api_v3_business_search&utm_source=rZiFgfUX1eajVOVygdFykg", "review_count": 3, "categories": [{"alias": "cocktailbars", "title": "Cocktail Bars"}], "rating": 2.5, "coordinates": {"latitude": 29.497527634202516, "longitude": -95.44016222049748}, "transactions": ["delivery", "pickup"], "location": {"address1": "15003 Hwy 6", "address2": "", "address3": null, "city": "Rosharon", "zip_code": "77583", "country": "US", "state": "TX", "display_address": ["15003 Hwy 6", "Rosharon, TX 77583"]}, "phone": "+12817104574", "display_phone": "(281) 710-4574", "distance": 5300.767022720835}, {"id": "UjaXkcw_o_KsxwvXS4NePA", "alias": "mongo-pearland", "name": "Mongo", "image_url": "https://s3-media2.fl.yelpcdn.com/bphoto/DrhyTHoZLX_pq1N2Zryabg/o.jpg", "is_closed": false, "url": "https://www.yelp.com/biz/mongo-pearland?adjust_creative=rZiFgfUX1eajVOVygdFykg&utm_campaign=yelp_api_v3&utm_medium=api_v3_business_search&utm_source=rZiFgfUX1eajVOVygdFykg", "review_count": 359, "categories": [{"alias": "mongolian", "title": "Mongolian"}, {"alias": "bars", "title": "Bars"}, {"alias": "sushi", "title": "Sushi Bars"}], "rating": 3.5, "coordinates": {"latitude": 29.553499479740964, "longitude": -95.3943196246698}, "transactions": ["delivery"], "price": "$$", "location": {"address1": "11200 Broadway St", "address2": "Ste 400", "address3": "", "city": "Pearland", "zip_code": "77584", "country": "US", "state": "TX", "display_address": ["11200 Broadway St", "Ste 400", "Pearland, TX 77584"]}, "phone": "+17133401288", "display_phone": "(713) 340-1288", "distance": 7514.076373768876}, {"id": "flqrxuif4qp7UYaCtrfPWA", "alias": "pho-seafood-and-crawfish-missouri-city", "name": "Pho Seafood & Crawfish", "image_url": "https://s3-media4.fl.yelpcdn.com/bphoto/bH0ym721K2G7EkJpdPjz4w/o.jpg", "is_closed": false, "url": "https://www.yelp.com/biz/pho-seafood-and-crawfish-missouri-city?adjust_creative=rZiFgfUX1eajVOVygdFykg&utm_campaign=yelp_api_v3&utm_medium=api_v3_business_search&utm_source=rZiFgfUX1eajVOVygdFykg", "review_count": 33, "categories": [{"alias": "seafood", "title": "Seafood"}, {"alias": "vietnamese", "title": "Vietnamese"}, {"alias": "asianfusion", "title": "Asian Fusion"}], "rating": 4.5, "coordinates": {"latitude": 29.5834036196037, "longitude": -95.5255183967138}, "transactions": ["delivery", "pickup"], "price": "$$", "location": {"address1": "3003 Texas Pkwy", "address2": "", "address3": null, "city": "Missouri City", "zip_code": "77489", "country": "US", "state": "TX", "display_address": ["3003 Texas Pkwy", "Missouri City, TX 77489"]}, "phone": "", "display_phone": "", "distance": 7413.0583553276465}, {"id": "cv7YDuN4Ix5rIksOdlLnsg", "alias": "fu-lu-su-restaurant-missouri-city", "name": "Fu Lu Su Restaurant", "image_url": "https://s3-media3.fl.yelpcdn.com/bphoto/n2jOYwSvwTimuU5tNxeRQQ/o.jpg", "is_closed": false, "url": "https://www.yelp.com/biz/fu-lu-su-restaurant-missouri-city?adjust_creative=rZiFgfUX1eajVOVygdFykg&utm_campaign=yelp_api_v3&utm_medium=api_v3_business_search&utm_source=rZiFgfUX1eajVOVygdFykg", "review_count": 139, "categories": [{"alias": "thai", "title": "Thai"}], "rating": 4.0, "coordinates": {"latitude": 29.5829, "longitude": -95.54167}, "transactions": ["delivery"], "price": "$", "location": {"address1": "2487 Cartwright Rd", "address2": "", "address3": "", "city": "Missouri City", "zip_code": "77459", "country": "US", "state": "TX", "display_address": ["2487 Cartwright Rd", "Missouri City, TX 77459"]}, "phone": "+12814995343", "display_phone": "(281) 499-5343", "distance": 8634.352578782491}, {"id": "dnl4X824IA8HjSvkDqu5ig", "alias": "pizza-inn-arcola", "name": "Pizza Inn", "image_url": "https://s3-media1.fl.yelpcdn.com/bphoto/ZUyEu5Rw7TlQEDrYzopfMg/o.jpg", "is_closed": false, "url": "https://www.yelp.com/biz/pizza-inn-arcola?adjust_creative=rZiFgfUX1eajVOVygdFykg&utm_campaign=yelp_api_v3&utm_medium=api_v3_business_search&utm_source=rZiFgfUX1eajVOVygdFykg", "review_count": 21, "categories": [{"alias": "pizza", "title": "Pizza"}, {"alias": "italian", "title": "Italian"}, {"alias": "buffets", "title": "Buffets"}], "rating": 3.5, "coordinates": {"latitude": 29.483528, "longitude": -95.469977}, "transactions": ["delivery", "pickup"], "location": {"address1": "6911 Fm 521 Rd", "address2": "", "address3": null, "city": "Arcola", "zip_code": "77583", "country": "US", "state": "TX", "display_address": ["6911 Fm 521 Rd", "Arcola, TX 77583"]}, "phone": "+12819729498", "display_phone": "(281) 972-9498", "distance": 6011.582089081516}, {"id": "w04j6l5YxnYn7j-3tYcSew", "alias": "tj-filipino-cuisine-pearland", "name": "TJ Filipino Cuisine", "image_url": "https://s3-media2.fl.yelpcdn.com/bphoto/Y6XiLBfdTILiqJP-qlmTuQ/o.jpg", "is_closed": false, "url": "https://www.yelp.com/biz/tj-filipino-cuisine-pearland?adjust_creative=rZiFgfUX1eajVOVygdFykg&utm_campaign=yelp_api_v3&utm_medium=api_v3_business_search&utm_source=rZiFgfUX1eajVOVygdFykg", "review_count": 122, "categories": [{"alias": "filipino", "title": "Filipino"}, {"alias": "seafood", "title": "Seafood"}, {"alias": "buffets", "title": "Buffets"}], "rating": 4.0, "coordinates": {"latitude": 29.578951, "longitude": -95.383058}, "transactions": [], "price": "$", "location": {"address1": "1826 Country Pl Pkwy", "address2": "Ste 118", "address3": null, "city": "Pearland", "zip_code": "77584", "country": "US", "state": "TX", "display_address": ["1826 Country Pl Pkwy", "Ste 118", "Pearland, TX 77584"]}, "phone": "+17134365030", "display_phone": "(713) 436-5030", "distance": 9570.995285271552}, {"id": "t_0c1iI0cuV7HpnxtKjTSg", "alias": "sushi-monster-missouri-city", "name": "Sushi Monster", "image_url": "https://s3-media3.fl.yelpcdn.com/bphoto/5Y72KCg10PLhqgmdxpNAzA/o.jpg", "is_closed": false, "url": "https://www.yelp.com/biz/sushi-monster-missouri-city?adjust_creative=rZiFgfUX1eajVOVygdFykg&utm_campaign=yelp_api_v3&utm_medium=api_v3_business_search&utm_source=rZiFgfUX1eajVOVygdFykg", "review_count": 133, "categories": [{"alias": "sushi", "title": "Sushi Bars"}, {"alias": "japanese", "title": "Japanese"}], "rating": 4.0, "coordinates": {"latitude": 29.51048, "longitude": -95.52719}, "transactions": ["delivery", "pickup"], "price": "$$", "location": {"address1": "4225 Sienna Pkwy", "address2": "Ste 150", "address3": null, "city": "Missouri City", "zip_code": "77459", "country": "US", "state": "TX", "display_address": ["4225 Sienna Pkwy", "Ste 150", "Missouri City, TX 77459"]}, "phone": "+18324407423", "display_phone": "(832) 440-7423", "distance": 6300.037185064263}, {"id": "dvOOWj0VedmhjjX5R4nQnQ", "alias": "the-bluebonnet-grille-missouri-city", "name": "The Bluebonnet Grille", "image_url": "https://s3-media4.fl.yelpcdn.com/bphoto/XMI7VL891reissvL00OdMg/o.jpg", "is_closed": false, "url": "https://www.yelp.com/biz/the-bluebonnet-grille-missouri-city?adjust_creative=rZiFgfUX1eajVOVygdFykg&utm_campaign=yelp_api_v3&utm_medium=api_v3_business_search&utm_source=rZiFgfUX1eajVOVygdFykg", "review_count": 24, "categories": [{"alias": "tradamerican", "title": "American (Traditional)"}, {"alias": "sandwiches", "title": "Sandwiches"}], "rating": 4.5, "coordinates": {"latitude": 29.57827, "longitude": -95.55194}, "transactions": ["delivery"], "price": "$", "location": {"address1": "2880 La Quinta Dr", "address2": "", "address3": "", "city": "Missouri City", "zip_code": "77459", "country": "US", "state": "TX", "display_address": ["2880 La Quinta Dr", "Missouri City, TX 77459"]}, "phone": "+12814035920", "display_phone": "(281) 403-5920", "distance": 8943.203018201526}, {"id": "Q-ZDGYW8z69VaBWgtHZSWQ", "alias": "smoothie-king-missouri-city-4", "name": "Smoothie King", "image_url": "https://s3-media2.fl.yelpcdn.com/bphoto/eThqX3tSDIub6q9xeKJw9A/o.jpg", "is_closed": false, "url": "https://www.yelp.com/biz/smoothie-king-missouri-city-4?adjust_creative=rZiFgfUX1eajVOVygdFykg&utm_campaign=yelp_api_v3&utm_medium=api_v3_business_search&utm_source=rZiFgfUX1eajVOVygdFykg", "review_count": 14, "categories": [{"alias": "juicebars", "title": "Juice Bars & Smoothies"}], "rating": 3.0, "coordinates": {"latitude": 29.53722, "longitude": -95.53314}, "transactions": ["delivery", "pickup"], "location": {"address1": "9101 Sienna Crossing Dr", "address2": "", "address3": null, "city": "Missouri City", "zip_code": "77459", "country": "US", "state": "TX", "display_address": ["9101 Sienna Crossing Dr", "Missouri City, TX 77459"]}, "phone": "+12817787130", "display_phone": "(281) 778-7130", "distance": 6126.118053663904}, {"id": "uDfGrwO77t6qS9SisWyQIQ", "alias": "sams-boat-pearland-2", "name": "Sam's Boat", "image_url": "https://s3-media2.fl.yelpcdn.com/bphoto/2FlVomQwJo_YHUcU5qCQ4A/o.jpg", "is_closed": false, "url": "https://www.yelp.com/biz/sams-boat-pearland-2?adjust_creative=rZiFgfUX1eajVOVygdFykg&utm_campaign=yelp_api_v3&utm_medium=api_v3_business_search&utm_source=rZiFgfUX1eajVOVygdFykg", "review_count": 204, "categories": [{"alias": "seafood", "title": "Seafood"}, {"alias": "sportsbars", "title": "Sports Bars"}], "rating": 2.5, "coordinates": {"latitude": 29.549511258338487, "longitude": -95.38640169564958}, "transactions": ["delivery", "pickup"], "price": "$$", "location": {"address1": "3239 Silverlake Village Dr", "address2": "", "address3": null, "city": "Pearland", "zip_code": "77584", "country": "US", "state": "TX", "display_address": ["3239 Silverlake Village Dr", "Pearland, TX 77584"]}, "phone": "+17134360201", "display_phone": "(713) 436-0201", "distance": 8177.290486018575}, {"id": "d8bHUHKcDhM7CwY7IcHfhQ", "alias": "center-court-pizza-and-brew-missouri-city", "name": "Center Court Pizza & Brew", "image_url": "https://s3-media2.fl.yelpcdn.com/bphoto/BLgwfYxTjMVduA5l7klAaw/o.jpg", "is_closed": false, "url": "https://www.yelp.com/biz/center-court-pizza-and-brew-missouri-city?adjust_creative=rZiFgfUX1eajVOVygdFykg&utm_campaign=yelp_api_v3&utm_medium=api_v3_business_search&utm_source=rZiFgfUX1eajVOVygdFykg", "review_count": 156, "categories": [{"alias": "pizza", "title": "Pizza"}], "rating": 3.0, "coordinates": {"latitude": 29.55147, "longitude": -95.55145}, "transactions": ["delivery"], "price": "$$", "location": {"address1": "7425 Hwy 6", "address2": "Ste 100", "address3": "", "city": "Missouri City", "zip_code": "77459", "country": "US", "state": "TX", "display_address": ["7425 Hwy 6", "Ste 100", "Missouri City, TX 77459"]}, "phone": "+18329470440", "display_phone": "(832) 947-0440", "distance": 8038.071753244893}, {"id": "C3KvG2IaMsQMdP70M2fooQ", "alias": "sugars-cajun-cuisine-and-bar-missouri-city", "name": "Sugar's Cajun Cuisine & Bar", "image_url": "https://s3-media3.fl.yelpcdn.com/bphoto/xAZpvoNYS--6U-NVZ3ee4A/o.jpg", "is_closed": false, "url": "https://www.yelp.com/biz/sugars-cajun-cuisine-and-bar-missouri-city?adjust_creative=rZiFgfUX1eajVOVygdFykg&utm_campaign=yelp_api_v3&utm_medium=api_v3_business_search&utm_source=rZiFgfUX1eajVOVygdFykg", "review_count": 170, "categories": [{"alias": "southern", "title": "Southern"}, {"alias": "bars", "title": "Bars"}, {"alias": "cajun", "title": "Cajun/Creole"}], "rating": 2.5, "coordinates": {"latitude": 29.5700077063231, "longitude": -95.5652812868357}, "transactions": ["delivery", "pickup"], "price": "$$", "location": {"address1": "3424 Fm 1092 Rd", "address2": "Ste 290", "address3": null, "city": "Missouri City", "zip_code": "77459", "country": "US", "state": "TX", "display_address": ["3424 Fm 1092 Rd", "Ste 290", "Missouri City, TX 77459"]}, "phone": "+18329871797", "display_phone": "(832) 987-1797", "distance": 9911.788113616269}, {"id": "wEjp4XApDRI0ZsiAlk3gbQ", "alias": "chilis-houston-32", "name": "Chili's", "image_url": "https://s3-media1.fl.yelpcdn.com/bphoto/DKTUdIkz37gx9dNOg8Edjg/o.jpg", "is_closed": false, "url": "https://www.yelp.com/biz/chilis-houston-32?adjust_creative=rZiFgfUX1eajVOVygdFykg&utm_campaign=yelp_api_v3&utm_medium=api_v3_business_search&utm_source=rZiFgfUX1eajVOVygdFykg", "review_count": 143, "categories": [{"alias": "tradamerican", "title": "American (Traditional)"}, {"alias": "bars", "title": "Bars"}, {"alias": "tex-mex", "title": "Tex-Mex"}], "rating": 2.0, "coordinates": {"latitude": 29.614856058924744, "longitude": -95.49467184417776}, "transactions": ["delivery", "pickup"], "price": "$$", "location": {"address1": "7408 S Sam Houston Pkwy W", "address2": "", "address3": "", "city": "Houston", "zip_code": "77085", "country": "US", "state": "TX", "display_address": ["7408 S Sam Houston Pkwy W", "Houston, TX 77085"]}, "phone": "+17137218347", "display_phone": "(713) 721-8347", "distance": 8919.379584212558}, {"id": "ywDir337erDjPRNwTSmNSw", "alias": "jasons-deli-pearland", "name": "Jason's Deli", "image_url": "https://s3-media2.fl.yelpcdn.com/bphoto/aC0kLIcNstwurj3hIv6-LA/o.jpg", "is_closed": false, "url": "https://www.yelp.com/biz/jasons-deli-pearland?adjust_creative=rZiFgfUX1eajVOVygdFykg&utm_campaign=yelp_api_v3&utm_medium=api_v3_business_search&utm_source=rZiFgfUX1eajVOVygdFykg", "review_count": 80, "categories": [{"alias": "delis", "title": "Delis"}, {"alias": "salad", "title": "Salad"}, {"alias": "sandwiches", "title": "Sandwiches"}], "rating": 2.5, "coordinates": {"latitude": 29.557611, "longitude": -95.367538}, "transactions": ["delivery", "pickup"], "price": "$", "location": {"address1": "9517 Broadway St", "address2": "", "address3": "", "city": "Pearland", "zip_code": "77584", "country": "US", "state": "TX", "display_address": ["9517 Broadway St", "Pearland, TX 77584"]}, "phone": "+17133402662", "display_phone": "(713) 340-2662", "distance": 10140.812483392148}, {"id": "GB1hSh2EFA7UDC7Waf94Vw", "alias": "soul-food-by-catherine-houston", "name": "Soul Food By Catherine", "image_url": "https://s3-media3.fl.yelpcdn.com/bphoto/04_inOTGsRGesTJVizDopw/o.jpg", "is_closed": false, "url": "https://www.yelp.com/biz/soul-food-by-catherine-houston?adjust_creative=rZiFgfUX1eajVOVygdFykg&utm_campaign=yelp_api_v3&utm_medium=api_v3_business_search&utm_source=rZiFgfUX1eajVOVygdFykg", "review_count": 90, "categories": [{"alias": "soulfood", "title": "Soul Food"}], "rating": 3.0, "coordinates": {"latitude": 29.61386, "longitude": -95.44073}, "transactions": ["pickup"], "price": "$$", "location": {"address1": "4202 W Fuqua St", "address2": "", "address3": "", "city": "Houston", "zip_code": "77045", "country": "US", "state": "TX", "display_address": ["4202 W Fuqua St", "Houston, TX 77045"]}, "phone": "+17134343334", "display_phone": "(713) 434-3334", "distance": 8910.866087298073}, {"id": "0TZeXZu5qdmJmBnIYtReYg", "alias": "tangs-kitchen-pearland", "name": "Tang's Kitchen", "image_url": "https://s3-media3.fl.yelpcdn.com/bphoto/AQNqGgFYw4IqQ3vsfICEIQ/o.jpg", "is_closed": false, "url": "https://www.yelp.com/biz/tangs-kitchen-pearland?adjust_creative=rZiFgfUX1eajVOVygdFykg&utm_campaign=yelp_api_v3&utm_medium=api_v3_business_search&utm_source=rZiFgfUX1eajVOVygdFykg", "review_count": 216, "categories": [{"alias": "chinese", "title": "Chinese"}], "rating": 3.5, "coordinates": {"latitude": 29.556222, "longitude": -95.416757}, "transactions": ["delivery", "pickup"], "price": "$$", "location": {"address1": "2975 Kingsley Dr", "address2": "Ste 139", "address3": "", "city": "Pearland", "zip_code": "77584", "country": "US", "state": "TX", "display_address": ["2975 Kingsley Dr", "Ste 139", "Pearland, TX 77584"]}, "phone": "+17133403188", "display_phone": "(713) 340-3188", "distance": 5534.371449507693}, {"id": "9UKzRMXwtbDGlUvT-3ybRw", "alias": "papa-johns-pizza-rosharon", "name": "Papa Johns Pizza", "image_url": "https://s3-media2.fl.yelpcdn.com/bphoto/THeu8rcE0_n4_Dhodg6nVg/o.jpg", "is_closed": false, "url": "https://www.yelp.com/biz/papa-johns-pizza-rosharon?adjust_creative=rZiFgfUX1eajVOVygdFykg&utm_campaign=yelp_api_v3&utm_medium=api_v3_business_search&utm_source=rZiFgfUX1eajVOVygdFykg", "review_count": 14, "categories": [{"alias": "pizza", "title": "Pizza"}, {"alias": "chicken_wings", "title": "Chicken Wings"}, {"alias": "hotdogs", "title": "Fast Food"}], "rating": 2.5, "coordinates": {"latitude": 29.498031, "longitude": -95.444712}, "transactions": ["delivery"], "price": "$", "location": {"address1": "14634 Hwy 6", "address2": "Ste B&C", "address3": "", "city": "Rosharon", "zip_code": "77583", "country": "US", "state": "TX", "display_address": ["14634 Hwy 6", "Ste B&C", "Rosharon, TX 77583"]}, "phone": "+12819155867", "display_phone": "(281) 915-5867", "distance": 5024.634952415463}, {"id": "BXzdfhfgS5UXFs6pRNIlTQ", "alias": "marcos-pizza-pearland-2", "name": "Marco's Pizza", "image_url": "https://s3-media2.fl.yelpcdn.com/bphoto/VOtlyLBwgPM1psBVHjWZiw/o.jpg", "is_closed": false, "url": "https://www.yelp.com/biz/marcos-pizza-pearland-2?adjust_creative=rZiFgfUX1eajVOVygdFykg&utm_campaign=yelp_api_v3&utm_medium=api_v3_business_search&utm_source=rZiFgfUX1eajVOVygdFykg", "review_count": 60, "categories": [{"alias": "pizza", "title": "Pizza"}], "rating": 3.5, "coordinates": {"latitude": 29.55458343290942, "longitude": -95.4187298450925}, "transactions": ["pickup", "delivery"], "price": "$$", "location": {"address1": "12810 W Broadway St", "address2": "Ste 100", "address3": null, "city": "Pearland", "zip_code": "77584", "country": "US", "state": "TX", "display_address": ["12810 W Broadway St", "Ste 100", "Pearland, TX 77584"]}, "phone": "+17134362000", "display_phone": "(713) 436-2000", "distance": 5290.178907810653}, {"id": "KljcPSUFcU_4VZHuW02aRQ", "alias": "fusion-oasis-pearland", "name": "Fusion Oasis", "image_url": "https://s3-media4.fl.yelpcdn.com/bphoto/Y7wIhEoUhIzINp9mYGN-fg/o.jpg", "is_closed": false, "url": "https://www.yelp.com/biz/fusion-oasis-pearland?adjust_creative=rZiFgfUX1eajVOVygdFykg&utm_campaign=yelp_api_v3&utm_medium=api_v3_business_search&utm_source=rZiFgfUX1eajVOVygdFykg", "review_count": 3, "categories": [{"alias": "bubbletea", "title": "Bubble Tea"}, {"alias": "coffee", "title": "Coffee & Tea"}, {"alias": "juicebars", "title": "Juice Bars & Smoothies"}], "rating": 3.0, "coordinates": {"latitude": 29.55592, "longitude": -95.39692}, "transactions": ["pickup", "delivery"], "location": {"address1": "11401 Broadway St", "address2": "Ste 101", "address3": "", "city": "Pearland", "zip_code": "77584", "country": "US", "state": "TX", "display_address": ["11401 Broadway St", "Ste 101", "Pearland, TX 77584"]}, "phone": "+12817419709", "display_phone": "(281) 741-9709", "distance": 7379.870422184303}, {"id": "fMklXrhYgNY_d3g7HJj-iw", "alias": "pepperonis-sienna-missouri-city", "name": "Pepperoni's - Sienna", "image_url": "https://s3-media2.fl.yelpcdn.com/bphoto/LVN8Ru0rFxkt1IkISRNEUw/o.jpg", "is_closed": false, "url": "https://www.yelp.com/biz/pepperonis-sienna-missouri-city?adjust_creative=rZiFgfUX1eajVOVygdFykg&utm_campaign=yelp_api_v3&utm_medium=api_v3_business_search&utm_source=rZiFgfUX1eajVOVygdFykg", "review_count": 91, "categories": [{"alias": "pizza", "title": "Pizza"}], "rating": 3.5, "coordinates": {"latitude": 29.5096709579229, "longitude": -95.5260170996189}, "transactions": ["pickup", "delivery"], "price": "$$", "location": {"address1": "4303 Sienna Circle", "address2": "", "address3": "", "city": "Missouri City", "zip_code": "77459", "country": "US", "state": "TX", "display_address": ["4303 Sienna Circle", "Missouri City, TX 77459"]}, "phone": "+12817787888", "display_phone": "(281) 778-7888", "distance": 6254.953785206621}, {"id": "09NYfdY-SD4n0f0Hg0Gegg", "alias": "ihop-missouri-city-3", "name": "IHOP", "image_url": "https://s3-media4.fl.yelpcdn.com/bphoto/OnT9BWX-hLdB99UV7KYh-w/o.jpg", "is_closed": false, "url": "https://www.yelp.com/biz/ihop-missouri-city-3?adjust_creative=rZiFgfUX1eajVOVygdFykg&utm_campaign=yelp_api_v3&utm_medium=api_v3_business_search&utm_source=rZiFgfUX1eajVOVygdFykg", "review_count": 174, "categories": [{"alias": "breakfast_brunch", "title": "Breakfast & Brunch"}, {"alias": "tradamerican", "title": "American (Traditional)"}, {"alias": "burgers", "title": "Burgers"}], "rating": 1.5, "coordinates": {"latitude": 29.5384, "longitude": -95.5316}, "transactions": ["pickup", "delivery"], "price": "$", "location": {"address1": "9220 Hwy 6", "address2": "", "address3": null, "city": "Missouri City", "zip_code": "77459", "country": "US", "state": "TX", "display_address": ["9220 Hwy 6", "Missouri City, TX 77459"]}, "phone": "+17133923661", "display_phone": "(713) 392-3661", "distance": 5977.592315852208}, {"id": "0wCcNVWDBhiL_JvhF3jaKA", "alias": "la-michoacana-meat-market-stafford", "name": "La Michoacana Meat Market", "image_url": "https://s3-media3.fl.yelpcdn.com/bphoto/jUSIdcpCE503IE6D-0jH6A/o.jpg", "is_closed": false, "url": "https://www.yelp.com/biz/la-michoacana-meat-market-stafford?adjust_creative=rZiFgfUX1eajVOVygdFykg&utm_campaign=yelp_api_v3&utm_medium=api_v3_business_search&utm_source=rZiFgfUX1eajVOVygdFykg", "review_count": 15, "categories": [{"alias": "grocery", "title": "Grocery"}], "rating": 3.0, "coordinates": {"latitude": 29.61592, "longitude": -95.55925}, "transactions": [], "price": "$", "location": {"address1": "112 Avenue F", "address2": null, "address3": null, "city": "Stafford", "zip_code": "77477", "country": "US", "state": "TX", "display_address": ["112 Avenue F", "Stafford, TX 77477"]}, "phone": "+12814995677", "display_phone": "(281) 499-5677", "distance": 12281.670991047244}, {"id": "sHmLKx1zfmqey_TjaoR3-g", "alias": "russos-new-york-pizzeria-and-italian-kitchen-sienna-plantation-missouri-city", "name": "Russo's New York Pizzeria & Italian Kitchen - Sienna Plantation", "image_url": "https://s3-media1.fl.yelpcdn.com/bphoto/wbgoJj7NiL2fkgVFfULtTA/o.jpg", "is_closed": false, "url": "https://www.yelp.com/biz/russos-new-york-pizzeria-and-italian-kitchen-sienna-plantation-missouri-city?adjust_creative=rZiFgfUX1eajVOVygdFykg&utm_campaign=yelp_api_v3&utm_medium=api_v3_business_search&utm_source=rZiFgfUX1eajVOVygdFykg", "review_count": 156, "categories": [{"alias": "pizza", "title": "Pizza"}, {"alias": "italian", "title": "Italian"}, {"alias": "wine_bars", "title": "Wine Bars"}], "rating": 2.5, "coordinates": {"latitude": 29.5304107, "longitude": -95.5084991}, "transactions": ["pickup", "delivery"], "price": "$$", "location": {"address1": "10350 Hwy 6 G", "address2": "Suite G", "address3": "", "city": "Missouri City", "zip_code": "77459", "country": "US", "state": "TX", "display_address": ["10350 Hwy 6 G", "Suite G", "Missouri City, TX 77459"]}, "phone": "+12814316637", "display_phone": "(281) 431-6637", "distance": 3826.8980894363312}, {"id": "NBmsJ6N1Av8C4nfDiGUH0Q", "alias": "subway-arcola-3", "name": "Subway", "image_url": "https://s3-media1.fl.yelpcdn.com/bphoto/TCuBmHFP1TohTYjhkDQnng/o.jpg", "is_closed": false, "url": "https://www.yelp.com/biz/subway-arcola-3?adjust_creative=rZiFgfUX1eajVOVygdFykg&utm_campaign=yelp_api_v3&utm_medium=api_v3_business_search&utm_source=rZiFgfUX1eajVOVygdFykg", "review_count": 8, "categories": [{"alias": "sandwiches", "title": "Sandwiches"}, {"alias": "hotdogs", "title": "Fast Food"}], "rating": 1.0, "coordinates": {"latitude": 29.5073727, "longitude": -95.4599168}, "transactions": ["pickup", "delivery"], "price": "$", "location": {"address1": "5243 Fm 521", "address2": null, "address3": null, "city": "Arcola", "zip_code": "77583", "country": "US", "state": "TX", "display_address": ["5243 Fm 521", "Arcola, TX 77583"]}, "phone": "+12814319520", "display_phone": "(281) 431-9520", "distance": 3495.9792703310836}, {"id": "MjRIF6cg0G8DltGkFVC3qw", "alias": "gringos-mexican-kitchen-pearland-4", "name": "Gringo's Mexican Kitchen", "image_url": "https://s3-media2.fl.yelpcdn.com/bphoto/mcyj5JDVOARPFq4rTveY3Q/o.jpg", "is_closed": false, "url": "https://www.yelp.com/biz/gringos-mexican-kitchen-pearland-4?adjust_creative=rZiFgfUX1eajVOVygdFykg&utm_campaign=yelp_api_v3&utm_medium=api_v3_business_search&utm_source=rZiFgfUX1eajVOVygdFykg", "review_count": 425, "categories": [{"alias": "mexican", "title": "Mexican"}, {"alias": "salad", "title": "Salad"}, {"alias": "soup", "title": "Soup"}], "rating": 3.5, "coordinates": {"latitude": 29.5543281, "longitude": -95.396685}, "transactions": ["delivery"], "price": "$$", "location": {"address1": "3005 Kirby Dr", "address2": "", "address3": "Pearland Town Center", "city": "Pearland", "zip_code": "77584", "country": "US", "state": "TX", "display_address": ["3005 Kirby Dr", "Pearland Town Center", "Pearland, TX 77584"]}, "phone": "+17135381000", "display_phone": "(713) 538-1000", "distance": 7314.7196015057525}, {"id": "mhPgIpF9FOXwatezc8KOYQ", "alias": "chick-fil-a-missouri-city-2", "name": "Chick-fil-A", "image_url": "https://s3-media4.fl.yelpcdn.com/bphoto/RFNhr-8ZpDnKU25SpxKRcg/o.jpg", "is_closed": false, "url": "https://www.yelp.com/biz/chick-fil-a-missouri-city-2?adjust_creative=rZiFgfUX1eajVOVygdFykg&utm_campaign=yelp_api_v3&utm_medium=api_v3_business_search&utm_source=rZiFgfUX1eajVOVygdFykg", "review_count": 83, "categories": [{"alias": "hotdogs", "title": "Fast Food"}, {"alias": "chickenshop", "title": "Chicken Shop"}, {"alias": "salad", "title": "Salad"}], "rating": 2.5, "coordinates": {"latitude": 29.5375007, "longitude": -95.5315097}, "transactions": ["delivery"], "price": "$", "location": {"address1": "9130 Highway 6", "address2": null, "address3": null, "city": "Missouri City", "zip_code": "77459", "country": "US", "state": "TX", "display_address": ["9130 Highway 6", "Missouri City, TX 77459"]}, "phone": "+18326328800", "display_phone": "(832) 632-8800", "distance": 5968.248533804148}, {"id": "n57eJtKaG6vVPrmo9t1UsQ", "alias": "wendys-missouri-city-4", "name": "Wendy's", "image_url": "https://s3-media3.fl.yelpcdn.com/bphoto/iylDQVB9jAqa3itsijvYwQ/o.jpg", "is_closed": false, "url": "https://www.yelp.com/biz/wendys-missouri-city-4?adjust_creative=rZiFgfUX1eajVOVygdFykg&utm_campaign=yelp_api_v3&utm_medium=api_v3_business_search&utm_source=rZiFgfUX1eajVOVygdFykg", "review_count": 18, "categories": [{"alias": "burgers", "title": "Burgers"}, {"alias": "hotdogs", "title": "Fast Food"}], "rating": 1.0, "coordinates": {"latitude": 29.5353663738692, "longitude": -95.5194275826216}, "transactions": ["delivery"], "location": {"address1": "9819 Highway 6", "address2": "", "address3": null, "city": "Missouri City", "zip_code": "77459", "country": "US", "state": "TX", "display_address": ["9819 Highway 6", "Missouri City, TX 77459"]}, "phone": "+12819947973", "display_phone": "(281) 994-7973", "distance": 4805.900854732648}, {"id": "dr7yEDEGplGnrM2UQ0ANUQ", "alias": "raki-sugar-land", "name": "Raki", "image_url": "https://s3-media4.fl.yelpcdn.com/bphoto/ekK1GO2TDXBpTPJsw-d7XA/o.jpg", "is_closed": false, "url": "https://www.yelp.com/biz/raki-sugar-land?adjust_creative=rZiFgfUX1eajVOVygdFykg&utm_campaign=yelp_api_v3&utm_medium=api_v3_business_search&utm_source=rZiFgfUX1eajVOVygdFykg", "review_count": 142, "categories": [{"alias": "japanese", "title": "Japanese"}, {"alias": "indonesian", "title": "Indonesian"}, {"alias": "chinese", "title": "Chinese"}], "rating": 4.5, "coordinates": {"latitude": 29.5620583, "longitude": -95.5628291}, "transactions": ["pickup", "delivery"], "price": "$$", "location": {"address1": "6302 Hwy 6", "address2": "", "address3": null, "city": "Sugar Land", "zip_code": "77459", "country": "US", "state": "TX", "display_address": ["6302 Hwy 6", "Sugar Land, TX 77459"]}, "phone": "+12812612288", "display_phone": "(281) 261-2288", "distance": 9398.842986988248}, {"id": "dPuEUwFUV8hZ8nX5kAlh6A", "alias": "salata-pearland-3", "name": "Salata", "image_url": "https://s3-media3.fl.yelpcdn.com/bphoto/9cVqOpD8vm4t6JEvk9TrXg/o.jpg", "is_closed": false, "url": "https://www.yelp.com/biz/salata-pearland-3?adjust_creative=rZiFgfUX1eajVOVygdFykg&utm_campaign=yelp_api_v3&utm_medium=api_v3_business_search&utm_source=rZiFgfUX1eajVOVygdFykg", "review_count": 122, "categories": [{"alias": "salad", "title": "Salad"}, {"alias": "soup", "title": "Soup"}, {"alias": "wraps", "title": "Wraps"}], "rating": 3.0, "coordinates": {"latitude": 29.557084, "longitude": -95.392176}, "transactions": ["pickup", "delivery"], "price": "$$", "location": {"address1": "2810 Business Center Dr", "address2": "Ste 120", "address3": "", "city": "Pearland", "zip_code": "77584", "country": "US", "state": "TX", "display_address": ["2810 Business Center Dr", "Ste 120", "Pearland, TX 77584"]}, "phone": "+12814164112", "display_phone": "(281) 416-4112", "distance": 7816.562008091578}, {"id": "8rrCnqoa8X8MMRPvzGIhhg", "alias": "buc-ees-pearland-4", "name": "Buc-ee's", "image_url": "https://s3-media3.fl.yelpcdn.com/bphoto/QrMNytUxwtFs_nXRg0jajQ/o.jpg", "is_closed": false, "url": "https://www.yelp.com/biz/buc-ees-pearland-4?adjust_creative=rZiFgfUX1eajVOVygdFykg&utm_campaign=yelp_api_v3&utm_medium=api_v3_business_search&utm_source=rZiFgfUX1eajVOVygdFykg", "review_count": 85, "categories": [{"alias": "servicestations", "title": "Gas Stations"}, {"alias": "convenience", "title": "Convenience Stores"}], "rating": 4.0, "coordinates": {"latitude": 29.5807334980596, "longitude": -95.3920497234159}, "transactions": [], "price": "$", "location": {"address1": "11151 Shadow Creek Pkwy", "address2": "", "address3": "", "city": "Pearland", "zip_code": "77584", "country": "US", "state": "TX", "display_address": ["11151 Shadow Creek Pkwy", "Pearland, TX 77584"]}, "phone": "+19792386390", "display_phone": "(979) 238-6390", "distance": 8920.399741096488}, {"id": "saMP8sFaZLtkIBXqhLQq4g", "alias": "arabella-mediterranean-kitchen-grill-pearland-2", "name": "Arabella Mediterranean Kitchen + Grill", "image_url": "https://s3-media3.fl.yelpcdn.com/bphoto/kabHZu4mPV87U_k7Efa7iA/o.jpg", "is_closed": false, "url": "https://www.yelp.com/biz/arabella-mediterranean-kitchen-grill-pearland-2?adjust_creative=rZiFgfUX1eajVOVygdFykg&utm_campaign=yelp_api_v3&utm_medium=api_v3_business_search&utm_source=rZiFgfUX1eajVOVygdFykg", "review_count": 65, "categories": [{"alias": "mediterranean", "title": "Mediterranean"}, {"alias": "salad", "title": "Salad"}, {"alias": "sandwiches", "title": "Sandwiches"}], "rating": 4.0, "coordinates": {"latitude": 29.554871, "longitude": -95.378917}, "transactions": ["pickup", "delivery"], "location": {"address1": "10228 Broadway St", "address2": "Ste 124", "address3": "", "city": "Pearland", "zip_code": "77584", "country": "US", "state": "TX", "display_address": ["10228 Broadway St", "Ste 124", "Pearland, TX 77584"]}, "phone": "+12818092880", "display_phone": "(281) 809-2880", "distance": 9000.350252637782}, {"id": "R7FkvWkRk1azhQENC-Ui9Q", "alias": "kroger-pearland-2", "name": "Kroger", "image_url": "https://s3-media1.fl.yelpcdn.com/bphoto/-CapR97mWUCKMkTrNVwKPg/o.jpg", "is_closed": false, "url": "https://www.yelp.com/biz/kroger-pearland-2?adjust_creative=rZiFgfUX1eajVOVygdFykg&utm_campaign=yelp_api_v3&utm_medium=api_v3_business_search&utm_source=rZiFgfUX1eajVOVygdFykg", "review_count": 70, "categories": [{"alias": "grocery", "title": "Grocery"}], "rating": 2.5, "coordinates": {"latitude": 29.58249, "longitude": -95.3897099}, "transactions": [], "price": "$$", "location": {"address1": "11003 Shadow Creek Pkwy", "address2": "", "address3": "", "city": "Pearland", "zip_code": "77047", "country": "US", "state": "TX", "display_address": ["11003 Shadow Creek Pkwy", "Pearland, TX 77047"]}, "phone": "+12816691230", "display_phone": "(281) 669-1230", "distance": 9260.085983356925}, {"id": "TytdNkoPdoe5JwQvoATRQg", "alias": "smoothie-king-pearland-2", "name": "Smoothie King", "image_url": "https://s3-media4.fl.yelpcdn.com/bphoto/SNm3FJyFIzuYA4S6ZwSHYw/o.jpg", "is_closed": false, "url": "https://www.yelp.com/biz/smoothie-king-pearland-2?adjust_creative=rZiFgfUX1eajVOVygdFykg&utm_campaign=yelp_api_v3&utm_medium=api_v3_business_search&utm_source=rZiFgfUX1eajVOVygdFykg", "review_count": 40, "categories": [{"alias": "healthmarkets", "title": "Health Markets"}, {"alias": "juicebars", "title": "Juice Bars & Smoothies"}], "rating": 3.0, "coordinates": {"latitude": 29.580838117536633, "longitude": -95.39090440389248}, "transactions": ["pickup", "delivery"], "price": "$$", "location": {"address1": "11037 Shadow Creek Pkwy", "address2": "Ste 115", "address3": null, "city": "Pearland", "zip_code": "77584", "country": "US", "state": "TX", "display_address": ["11037 Shadow Creek Pkwy", "Ste 115", "Pearland, TX 77584"]}, "phone": "+17133402691", "display_phone": "(713) 340-2691", "distance": 9020.198350789886}, {"id": "D4o9700v6Jl_7iVTe_EayQ", "alias": "hooties-burger-bar-pearland", "name": "Hootie's Burger Bar", "image_url": "", "is_closed": false, "url": "https://www.yelp.com/biz/hooties-burger-bar-pearland?adjust_creative=rZiFgfUX1eajVOVygdFykg&utm_campaign=yelp_api_v3&utm_medium=api_v3_business_search&utm_source=rZiFgfUX1eajVOVygdFykg", "review_count": 2, "categories": [{"alias": "fooddeliveryservices", "title": "Food Delivery Services"}, {"alias": "burgers", "title": "Burgers"}, {"alias": "tradamerican", "title": "American (Traditional)"}], "rating": 1.5, "coordinates": {"latitude": 29.566557, "longitude": -95.387963}, "transactions": ["delivery"], "location": {"address1": "15838 S Fwy", "address2": null, "address3": null, "city": "Pearland", "zip_code": "77584", "country": "US", "state": "TX", "display_address": ["15838 S Fwy", "Pearland, TX 77584"]}, "phone": "+17134360108", "display_phone": "(713) 436-0108", "distance": 8549.525642398312}, {"id": "feXkqu3JfNe5VC0aajWl4g", "alias": "chilis-missouri-city", "name": "Chili's", "image_url": "https://s3-media1.fl.yelpcdn.com/bphoto/s0xLiKCRpEKX5tbYg423OA/o.jpg", "is_closed": false, "url": "https://www.yelp.com/biz/chilis-missouri-city?adjust_creative=rZiFgfUX1eajVOVygdFykg&utm_campaign=yelp_api_v3&utm_medium=api_v3_business_search&utm_source=rZiFgfUX1eajVOVygdFykg", "review_count": 161, "categories": [{"alias": "bars", "title": "Bars"}, {"alias": "tex-mex", "title": "Tex-Mex"}, {"alias": "tradamerican", "title": "American (Traditional)"}], "rating": 2.0, "coordinates": {"latitude": 29.569037, "longitude": -95.568351}, "transactions": ["pickup", "delivery"], "price": "$$", "location": {"address1": "5788 Highway 6", "address2": "", "address3": "", "city": "Missouri City", "zip_code": "77459", "country": "US", "state": "TX", "display_address": ["5788 Highway 6", "Missouri City, TX 77459"]}, "phone": "+12814990227", "display_phone": "(281) 499-0227", "distance": 10151.36016503849}, {"id": "5eS48y20LpMa3IM9WnT7YA", "alias": "kfc-missouri-city", "name": "KFC", "image_url": "https://s3-media1.fl.yelpcdn.com/bphoto/mEkxpEdMhxKjvqYeL-vltg/o.jpg", "is_closed": false, "url": "https://www.yelp.com/biz/kfc-missouri-city?adjust_creative=rZiFgfUX1eajVOVygdFykg&utm_campaign=yelp_api_v3&utm_medium=api_v3_business_search&utm_source=rZiFgfUX1eajVOVygdFykg", "review_count": 16, "categories": [{"alias": "hotdogs", "title": "Fast Food"}, {"alias": "chicken_wings", "title": "Chicken Wings"}, {"alias": "chickenshop", "title": "Chicken Shop"}], "rating": 1.5, "coordinates": {"latitude": 29.59526, "longitude": -95.527146}, "transactions": ["pickup", "delivery"], "price": "$", "location": {"address1": "2210 Texas Pkwy", "address2": "", "address3": "", "city": "Missouri City", "zip_code": "77489", "country": "US", "state": "TX", "display_address": ["2210 Texas Pkwy", "Missouri City, TX 77489"]}, "phone": "+12814039162", "display_phone": "(281) 403-9162", "distance": 8474.933104429607}, {"id": "fZfm6KsZIpJL9QGUcKlA0g", "alias": "baskin-robbins-pearland-2", "name": "Baskin-Robbins", "image_url": "https://s3-media3.fl.yelpcdn.com/bphoto/LVuCtiRLK-T5twvXuuko1Q/o.jpg", "is_closed": false, "url": "https://www.yelp.com/biz/baskin-robbins-pearland-2?adjust_creative=rZiFgfUX1eajVOVygdFykg&utm_campaign=yelp_api_v3&utm_medium=api_v3_business_search&utm_source=rZiFgfUX1eajVOVygdFykg", "review_count": 17, "categories": [{"alias": "icecream", "title": "Ice Cream & Frozen Yogurt"}, {"alias": "desserts", "title": "Desserts"}, {"alias": "customcakes", "title": "Custom Cakes"}], "rating": 3.0, "coordinates": {"latitude": 29.5558551, "longitude": -95.3836095}, "transactions": ["delivery"], "price": "$", "location": {"address1": "10504 Broadway St", "address2": "Suite B", "address3": "", "city": "Pearland", "zip_code": "77584", "country": "US", "state": "TX", "display_address": ["10504 Broadway St", "Suite B", "Pearland, TX 77584"]}, "phone": "+17134365358", "display_phone": "(713) 436-5358", "distance": 8602.85275435028}, {"id": "EX4uG_TBlGOwvjj5zw_pJQ", "alias": "r-and-b-tea-pearland-pearland-2", "name": "R&B Tea - Pearland", "image_url": "https://s3-media2.fl.yelpcdn.com/bphoto/58WUt9gTSZSD5GbJO_E4vw/o.jpg", "is_closed": false, "url": "https://www.yelp.com/biz/r-and-b-tea-pearland-pearland-2?adjust_creative=rZiFgfUX1eajVOVygdFykg&utm_campaign=yelp_api_v3&utm_medium=api_v3_business_search&utm_source=rZiFgfUX1eajVOVygdFykg", "review_count": 102, "categories": [{"alias": "coffee", "title": "Coffee & Tea"}, {"alias": "bubbletea", "title": "Bubble Tea"}, {"alias": "juicebars", "title": "Juice Bars & Smoothies"}], "rating": 4.5, "coordinates": {"latitude": 29.546292, "longitude": -95.390177}, "transactions": ["delivery"], "price": "$", "location": {"address1": "3422 Business Center Dr", "address2": "Ste 142", "address3": null, "city": "Pearland", "zip_code": "77584", "country": "US", "state": "TX", "display_address": ["3422 Business Center Dr", "Ste 142", "Pearland, TX 77584"]}, "phone": "+12817418710", "display_phone": "(281) 741-8710", "distance": 7754.05569486468}, {"id": "MhWcoDmQZJUk0W4iRArjmQ", "alias": "rayly-teahouse-missouri-city-2", "name": "Rayly Teahouse", "image_url": "https://s3-media1.fl.yelpcdn.com/bphoto/4KZPLpbjuSrmWsK2RYpUGg/o.jpg", "is_closed": false, "url": "https://www.yelp.com/biz/rayly-teahouse-missouri-city-2?adjust_creative=rZiFgfUX1eajVOVygdFykg&utm_campaign=yelp_api_v3&utm_medium=api_v3_business_search&utm_source=rZiFgfUX1eajVOVygdFykg", "review_count": 57, "categories": [{"alias": "bubbletea", "title": "Bubble Tea"}, {"alias": "coffee", "title": "Coffee & Tea"}, {"alias": "juicebars", "title": "Juice Bars & Smoothies"}], "rating": 4.0, "coordinates": {"latitude": 29.549271, "longitude": -95.552231}, "transactions": [], "price": "$", "location": {"address1": "7746 Hwy 6", "address2": "", "address3": null, "city": "Missouri City", "zip_code": "77459", "country": "US", "state": "TX", "display_address": ["7746 Hwy 6", "Missouri City, TX 77459"]}, "phone": "+12819697509", "display_phone": "(281) 969-7509", "distance": 8077.183673644127}, {"id": "jdNYkbaU26_DKJTfVOEA7Q", "alias": "tropical-smoothie-cafe-missouri-city-2", "name": "Tropical Smoothie Cafe", "image_url": "https://s3-media2.fl.yelpcdn.com/bphoto/9fjvsKrOlc28scVrObhDNA/o.jpg", "is_closed": false, "url": "https://www.yelp.com/biz/tropical-smoothie-cafe-missouri-city-2?adjust_creative=rZiFgfUX1eajVOVygdFykg&utm_campaign=yelp_api_v3&utm_medium=api_v3_business_search&utm_source=rZiFgfUX1eajVOVygdFykg", "review_count": 36, "categories": [{"alias": "juicebars", "title": "Juice Bars & Smoothies"}, {"alias": "sandwiches", "title": "Sandwiches"}, {"alias": "wraps", "title": "Wraps"}], "rating": 3.0, "coordinates": {"latitude": 29.554870512349105, "longitude": -95.55584063564336}, "transactions": ["pickup", "delivery"], "location": {"address1": "7022 State Hwy 6", "address2": "Ste 900", "address3": null, "city": "Missouri City", "zip_code": "77459", "country": "US", "state": "TX", "display_address": ["7022 State Hwy 6", "Ste 900", "Missouri City, TX 77459"]}, "phone": "+12819698726", "display_phone": "(281) 969-8726", "distance": 8539.857762015452}, {"id": "l5DhUBiMArWUTl_4hJpkAA", "alias": "bourbon-street-daquries-pearland", "name": "Bourbon Street Daquries", "image_url": "https://s3-media2.fl.yelpcdn.com/bphoto/XNUZ9eProFkFqqQQAsdTRw/o.jpg", "is_closed": false, "url": "https://www.yelp.com/biz/bourbon-street-daquries-pearland?adjust_creative=rZiFgfUX1eajVOVygdFykg&utm_campaign=yelp_api_v3&utm_medium=api_v3_business_search&utm_source=rZiFgfUX1eajVOVygdFykg", "review_count": 6, "categories": [{"alias": "cajun", "title": "Cajun/Creole"}, {"alias": "bars", "title": "Bars"}, {"alias": "seafood", "title": "Seafood"}], "rating": 3.5, "coordinates": {"latitude": 29.54630036522986, "longitude": -95.39024145585392}, "transactions": ["delivery"], "location": {"address1": "3422 Business Ctr Dr", "address2": "Ste 130", "address3": null, "city": "Pearland", "zip_code": "77584", "country": "US", "state": "TX", "display_address": ["3422 Business Ctr Dr", "Ste 130", "Pearland, TX 77584"]}, "phone": "+18322304256", "display_phone": "(832) 230-4256", "distance": 7758.581706195089}, {"id": "OBqBG6xwSMNkWYIfJ3ddGg", "alias": "pepperonis-pearland-pearland-2", "name": "Pepperoni's - Pearland", "image_url": "https://s3-media3.fl.yelpcdn.com/bphoto/LxgsNa_p9uKCo3LCUGrQ3w/o.jpg", "is_closed": false, "url": "https://www.yelp.com/biz/pepperonis-pearland-pearland-2?adjust_creative=rZiFgfUX1eajVOVygdFykg&utm_campaign=yelp_api_v3&utm_medium=api_v3_business_search&utm_source=rZiFgfUX1eajVOVygdFykg", "review_count": 100, "categories": [{"alias": "pizza", "title": "Pizza"}], "rating": 3.0, "coordinates": {"latitude": 29.5564963336058, "longitude": -95.4168250411749}, "transactions": ["pickup", "delivery"], "price": "$$", "location": {"address1": "2975 Kingsley Dr", "address2": "Ste 121", "address3": "", "city": "Pearland", "zip_code": "77584", "country": "US", "state": "TX", "display_address": ["2975 Kingsley Dr", "Ste 121", "Pearland, TX 77584"]}, "phone": "+18322884766", "display_phone": "(832) 288-4766", "distance": 5539.753492448136}, {"id": "EhCzwttKMV61DNZHAtFiwQ", "alias": "smoothie-king-missouri-city-2", "name": "Smoothie King", "image_url": "https://s3-media2.fl.yelpcdn.com/bphoto/b2VBoo8QK6ymNaSS4iGotw/o.jpg", "is_closed": false, "url": "https://www.yelp.com/biz/smoothie-king-missouri-city-2?adjust_creative=rZiFgfUX1eajVOVygdFykg&utm_campaign=yelp_api_v3&utm_medium=api_v3_business_search&utm_source=rZiFgfUX1eajVOVygdFykg", "review_count": 37, "categories": [{"alias": "juicebars", "title": "Juice Bars & Smoothies"}, {"alias": "healthmarkets", "title": "Health Markets"}], "rating": 2.0, "coordinates": {"latitude": 29.56401, "longitude": -95.56227}, "transactions": ["pickup", "delivery"], "price": "$", "location": {"address1": "6261 6th", "address2": "", "address3": "", "city": "Missouri City", "zip_code": "77459", "country": "US", "state": "TX", "display_address": ["6261 6th", "Missouri City, TX 77459"]}, "phone": "+18329871452", "display_phone": "(832) 987-1452", "distance": 9412.413848948958}, {"id": "xu4FNdHYBKyIF0-vdbuPLA", "alias": "ninfas-missouri-city", "name": "Ninfa's", "image_url": "https://s3-media3.fl.yelpcdn.com/bphoto/b-Alk9Pbb8AWBpTPE6Mt8g/o.jpg", "is_closed": false, "url": "https://www.yelp.com/biz/ninfas-missouri-city?adjust_creative=rZiFgfUX1eajVOVygdFykg&utm_campaign=yelp_api_v3&utm_medium=api_v3_business_search&utm_source=rZiFgfUX1eajVOVygdFykg", "review_count": 96, "categories": [{"alias": "mexican", "title": "Mexican"}], "rating": 3.0, "coordinates": {"latitude": 29.570239476340657, "longitude": -95.56925141864426}, "transactions": ["pickup", "delivery"], "price": "$$", "location": {"address1": "5730 Hwy 6", "address2": null, "address3": null, "city": "Missouri City", "zip_code": "77459", "country": "US", "state": "TX", "display_address": ["5730 Hwy 6", "Missouri City, TX 77459"]}, "phone": "+12814995070", "display_phone": "(281) 499-5070", "distance": 10279.552273230063}, {"id": "ZaISh61fxTQE11qv4vvN7w", "alias": "wingstop-missouri-city-2", "name": "Wingstop", "image_url": "https://s3-media4.fl.yelpcdn.com/bphoto/_rLChqIszusullFs6ThEQQ/o.jpg", "is_closed": false, "url": "https://www.yelp.com/biz/wingstop-missouri-city-2?adjust_creative=rZiFgfUX1eajVOVygdFykg&utm_campaign=yelp_api_v3&utm_medium=api_v3_business_search&utm_source=rZiFgfUX1eajVOVygdFykg", "review_count": 60, "categories": [{"alias": "chicken_wings", "title": "Chicken Wings"}], "rating": 2.5, "coordinates": {"latitude": 29.552562426186615, "longitude": -95.55415166972396}, "transactions": [], "price": "$$", "location": {"address1": "7260 Highway 6", "address2": "Ste 500", "address3": "", "city": "Missouri City", "zip_code": "77459", "country": "US", "state": "TX", "display_address": ["7260 Highway 6", "Ste 500", "Missouri City, TX 77459"]}, "phone": "+12812612300", "display_phone": "(281) 261-2300", "distance": 8325.799320671942}, {"id": "7vtj0tAH9BN84IeA31Gc6Q", "alias": "super-6-buffet-missouri-city-2", "name": "Super 6 Buffet", "image_url": "https://s3-media2.fl.yelpcdn.com/bphoto/eU2vHtwSun_K3w6ZOjqVyQ/o.jpg", "is_closed": false, "url": "https://www.yelp.com/biz/super-6-buffet-missouri-city-2?adjust_creative=rZiFgfUX1eajVOVygdFykg&utm_campaign=yelp_api_v3&utm_medium=api_v3_business_search&utm_source=rZiFgfUX1eajVOVygdFykg", "review_count": 131, "categories": [{"alias": "buffets", "title": "Buffets"}, {"alias": "chinese", "title": "Chinese"}, {"alias": "sushi", "title": "Sushi Bars"}], "rating": 3.0, "coordinates": {"latitude": 29.574014, "longitude": -95.570543}, "transactions": ["delivery"], "price": "$$", "location": {"address1": "5425 Hwy 6 S", "address2": "Ste 100", "address3": "", "city": "Missouri City", "zip_code": "77459", "country": "US", "state": "TX", "display_address": ["5425 Hwy 6 S", "Ste 100", "Missouri City, TX 77459"]}, "phone": "+18325396633", "display_phone": "(832) 539-6633", "distance": 10550.176682737678}, {"id": "YUKgNXTpWYu6BezaEi5OPw", "alias": "its-just-wings-missouri-city", "name": "It's Just Wings", "image_url": "", "is_closed": false, "url": "https://www.yelp.com/biz/its-just-wings-missouri-city?adjust_creative=rZiFgfUX1eajVOVygdFykg&utm_campaign=yelp_api_v3&utm_medium=api_v3_business_search&utm_source=rZiFgfUX1eajVOVygdFykg", "review_count": 3, "categories": [{"alias": "chicken_wings", "title": "Chicken Wings"}], "rating": 2.5, "coordinates": {"latitude": 29.56904358322381, "longitude": -95.56833668238198}, "transactions": ["pickup", "delivery"], "location": {"address1": "5788 Hwy 6", "address2": "", "address3": null, "city": "Missouri City", "zip_code": "77459", "country": "US", "state": "TX", "display_address": ["5788 Hwy 6", "Missouri City, TX 77459"]}, "phone": "+14696132018", "display_phone": "(469) 613-2018", "distance": 10150.31167135855}, {"id": "RAhlaGWlNlNJ79sE3xr0zQ", "alias": "casa-vaqueros-missouri-city", "name": "Casa Vaqueros", "image_url": "https://s3-media3.fl.yelpcdn.com/bphoto/CFNGwLaGAWzF9eharm2DYQ/o.jpg", "is_closed": false, "url": "https://www.yelp.com/biz/casa-vaqueros-missouri-city?adjust_creative=rZiFgfUX1eajVOVygdFykg&utm_campaign=yelp_api_v3&utm_medium=api_v3_business_search&utm_source=rZiFgfUX1eajVOVygdFykg", "review_count": 26, "categories": [{"alias": "mexican", "title": "Mexican"}], "rating": 3.5, "coordinates": {"latitude": 29.58939, "longitude": -95.56458}, "transactions": ["pickup", "delivery"], "location": {"address1": "2140 Fm 1092 Rd", "address2": "", "address3": null, "city": "Missouri City", "zip_code": "77459", "country": "US", "state": "TX", "display_address": ["2140 Fm 1092 Rd", "Missouri City, TX 77459"]}, "phone": "+12812083990", "display_phone": "(281) 208-3990", "distance": 10822.246056035494}, {"id": "GttNfTrgnC1RYqJ56ZekYA", "alias": "whataburger-missouri-city", "name": "Whataburger", "image_url": "https://s3-media2.fl.yelpcdn.com/bphoto/0ScRy_C7rKVqw9WUJtacog/o.jpg", "is_closed": false, "url": "https://www.yelp.com/biz/whataburger-missouri-city?adjust_creative=rZiFgfUX1eajVOVygdFykg&utm_campaign=yelp_api_v3&utm_medium=api_v3_business_search&utm_source=rZiFgfUX1eajVOVygdFykg", "review_count": 88, "categories": [{"alias": "hotdogs", "title": "Fast Food"}, {"alias": "burgers", "title": "Burgers"}], "rating": 2.0, "coordinates": {"latitude": 29.5390817897187, "longitude": -95.53762342270184}, "transactions": ["delivery"], "price": "$", "location": {"address1": "8820 Highway 6", "address2": "Ste 100", "address3": "", "city": "Missouri City", "zip_code": "77459", "country": "US", "state": "TX", "display_address": ["8820 Highway 6", "Ste 100", "Missouri City, TX 77459"]}, "phone": "+12817786922", "display_phone": "(281) 778-6922", "distance": 6561.688807655944}, {"id": "0EOXJxsktTLoLya8beiZMw", "alias": "wendys-pearland-5", "name": "Wendy's", "image_url": "https://s3-media2.fl.yelpcdn.com/bphoto/zyzGjaXAYI-6imFQJ3G4tg/o.jpg", "is_closed": false, "url": "https://www.yelp.com/biz/wendys-pearland-5?adjust_creative=rZiFgfUX1eajVOVygdFykg&utm_campaign=yelp_api_v3&utm_medium=api_v3_business_search&utm_source=rZiFgfUX1eajVOVygdFykg", "review_count": 30, "categories": [{"alias": "hotdogs", "title": "Fast Food"}, {"alias": "burgers", "title": "Burgers"}], "rating": 1.5, "coordinates": {"latitude": 29.5816637533487, "longitude": -95.3978001326323}, "transactions": ["delivery"], "price": "$", "location": {"address1": "11511 Shadow Creek Pkwy", "address2": "", "address3": null, "city": "Pearland", "zip_code": "77584", "country": "US", "state": "TX", "display_address": ["11511 Shadow Creek Pkwy", "Pearland, TX 77584"]}, "phone": "+18322847268", "display_phone": "(832) 284-7268", "distance": 8515.740911805764}, {"id": "FtMHh-22j9EK35nh2NiQpQ", "alias": "nam-noodles-and-more-pearland", "name": "NAM Noodles & More", "image_url": "https://s3-media1.fl.yelpcdn.com/bphoto/bXPLxMK5QrXaxLIeDnYSaQ/o.jpg", "is_closed": false, "url": "https://www.yelp.com/biz/nam-noodles-and-more-pearland?adjust_creative=rZiFgfUX1eajVOVygdFykg&utm_campaign=yelp_api_v3&utm_medium=api_v3_business_search&utm_source=rZiFgfUX1eajVOVygdFykg", "review_count": 272, "categories": [{"alias": "vietnamese", "title": "Vietnamese"}, {"alias": "noodles", "title": "Noodles"}], "rating": 3.5, "coordinates": {"latitude": 29.5614332, "longitude": -95.3863937}, "transactions": ["pickup"], "price": "$$", "location": {"address1": "2510 Smith Ranch Rd", "address2": "Ste 110", "address3": "", "city": "Pearland", "zip_code": "77584", "country": "US", "state": "TX", "display_address": ["2510 Smith Ranch Rd", "Ste 110", "Pearland, TX 77584"]}, "phone": "+17133402242", "display_phone": "(713) 340-2242", "distance": 8493.474117046797}, {"id": "kJ4VEdcapSp0yW60S5C73Q", "alias": "pho-l-amour-noodles-and-grill-pearland", "name": "Pho L'amour Noodles & Grill", "image_url": "https://s3-media2.fl.yelpcdn.com/bphoto/MGIxeeh77XSh5xkB3pfV9A/o.jpg", "is_closed": false, "url": "https://www.yelp.com/biz/pho-l-amour-noodles-and-grill-pearland?adjust_creative=rZiFgfUX1eajVOVygdFykg&utm_campaign=yelp_api_v3&utm_medium=api_v3_business_search&utm_source=rZiFgfUX1eajVOVygdFykg", "review_count": 148, "categories": [{"alias": "vietnamese", "title": "Vietnamese"}, {"alias": "soup", "title": "Soup"}, {"alias": "bubbletea", "title": "Bubble Tea"}], "rating": 4.0, "coordinates": {"latitude": 29.578562, "longitude": -95.403269}, "transactions": ["delivery"], "price": "$$", "location": {"address1": "11901 Shadow Creek", "address2": "Ste 103", "address3": "", "city": "Pearland", "zip_code": "77584", "country": "US", "state": "TX", "display_address": ["11901 Shadow Creek", "Ste 103", "Pearland, TX 77584"]}, "phone": "+12817416777", "display_phone": "(281) 741-6777", "distance": 7884.772339849936}, {"id": "8mdn1IlGfR-AJbTPnWznYg", "alias": "burger-king-pearland-4", "name": "Burger King", "image_url": "https://s3-media1.fl.yelpcdn.com/bphoto/Hkso675utg6dEmJt7egCqA/o.jpg", "is_closed": false, "url": "https://www.yelp.com/biz/burger-king-pearland-4?adjust_creative=rZiFgfUX1eajVOVygdFykg&utm_campaign=yelp_api_v3&utm_medium=api_v3_business_search&utm_source=rZiFgfUX1eajVOVygdFykg", "review_count": 3, "categories": [{"alias": "burgers", "title": "Burgers"}, {"alias": "hotdogs", "title": "Fast Food"}], "rating": 1.5, "coordinates": {"latitude": 29.5772351, "longitude": -95.4170427}, "transactions": ["delivery"], "location": {"address1": "12487 Shadow Creek Pkwy", "address2": null, "address3": null, "city": "Pearland", "zip_code": "77584", "country": "US", "state": "TX", "display_address": ["12487 Shadow Creek Pkwy", "Pearland, TX 77584"]}, "phone": "+13465702674", "display_phone": "(346) 570-2674", "distance": 7082.021494531284}, {"id": "zQcWeTR29RPWP8ZwZvx0Sg", "alias": "burger-king-rosharon", "name": "Burger King", "image_url": "https://s3-media2.fl.yelpcdn.com/bphoto/HAroFa18aEU4CmUVzGAPig/o.jpg", "is_closed": false, "url": "https://www.yelp.com/biz/burger-king-rosharon?adjust_creative=rZiFgfUX1eajVOVygdFykg&utm_campaign=yelp_api_v3&utm_medium=api_v3_business_search&utm_source=rZiFgfUX1eajVOVygdFykg", "review_count": 10, "categories": [{"alias": "burgers", "title": "Burgers"}, {"alias": "hotdogs", "title": "Fast Food"}], "rating": 2.0, "coordinates": {"latitude": 29.497133, "longitude": -95.439447}, "transactions": [], "location": {"address1": "15013 Hwy 6", "address2": null, "address3": null, "city": "Rosharon", "zip_code": "77583", "country": "US", "state": "TX", "display_address": ["15013 Hwy 6", "Rosharon, TX 77583"]}, "phone": "+12819155987", "display_phone": "(281) 915-5987", "distance": 5375.240551946716}, {"id": "Esg1EbePGpX4AFYGLnz-Nw", "alias": "subway-missouri-city-15", "name": "Subway", "image_url": "https://s3-media4.fl.yelpcdn.com/bphoto/pStaw0v1o1WSHycTaoqp3A/o.jpg", "is_closed": false, "url": "https://www.yelp.com/biz/subway-missouri-city-15?adjust_creative=rZiFgfUX1eajVOVygdFykg&utm_campaign=yelp_api_v3&utm_medium=api_v3_business_search&utm_source=rZiFgfUX1eajVOVygdFykg", "review_count": 2, "categories": [{"alias": "hotdogs", "title": "Fast Food"}, {"alias": "sandwiches", "title": "Sandwiches"}], "rating": 1.0, "coordinates": {"latitude": 29.536257304038333, "longitude": -95.517124514098}, "transactions": ["pickup", "delivery"], "location": {"address1": "9929 State Hwy 6", "address2": null, "address3": "Wal-Mart", "city": "Missouri City", "zip_code": "77459", "country": "US", "state": "TX", "display_address": ["9929 State Hwy 6", "Wal-Mart", "Missouri City, TX 77459"]}, "phone": "+12814169744", "display_phone": "(281) 416-9744", "distance": 4579.065137621066}, {"id": "pmCLox5jf9FIcbsJzYGKFw", "alias": "ihop-pearland", "name": "IHOP", "image_url": "https://s3-media3.fl.yelpcdn.com/bphoto/CwRIOXLxKHf79ehFzLomRQ/o.jpg", "is_closed": false, "url": "https://www.yelp.com/biz/ihop-pearland?adjust_creative=rZiFgfUX1eajVOVygdFykg&utm_campaign=yelp_api_v3&utm_medium=api_v3_business_search&utm_source=rZiFgfUX1eajVOVygdFykg", "review_count": 81, "categories": [{"alias": "tradamerican", "title": "American (Traditional)"}, {"alias": "breakfast_brunch", "title": "Breakfast & Brunch"}, {"alias": "burgers", "title": "Burgers"}], "rating": 2.5, "coordinates": {"latitude": 29.55299, "longitude": -95.38661}, "transactions": ["pickup", "delivery"], "price": "$$", "location": {"address1": "3110 Silverlake Village Dr", "address2": "", "address3": "", "city": "Pearland", "zip_code": "77584", "country": "US", "state": "TX", "display_address": ["3110 Silverlake Village Dr", "Pearland, TX 77584"]}, "phone": "+17134366746", "display_phone": "(713) 436-6746", "distance": 8228.883885101219}, {"id": "DyWjU_0MxKOtKcVyVKwG3g", "alias": "hooters-pearland-2", "name": "Hooters", "image_url": "https://s3-media4.fl.yelpcdn.com/bphoto/EimcRbD6cO5tsAnTdssTfQ/o.jpg", "is_closed": false, "url": "https://www.yelp.com/biz/hooters-pearland-2?adjust_creative=rZiFgfUX1eajVOVygdFykg&utm_campaign=yelp_api_v3&utm_medium=api_v3_business_search&utm_source=rZiFgfUX1eajVOVygdFykg", "review_count": 152, "categories": [{"alias": "sportsbars", "title": "Sports Bars"}, {"alias": "newamerican", "title": "American (New)"}, {"alias": "chicken_wings", "title": "Chicken Wings"}], "rating": 2.0, "coordinates": {"latitude": 29.56657, "longitude": -95.38794}, "transactions": ["pickup", "delivery"], "price": "$$", "location": {"address1": "15838 South Fwy", "address2": "", "address3": null, "city": "Pearland", "zip_code": "77584", "country": "US", "state": "TX", "display_address": ["15838 South Fwy", "Pearland, TX 77584"]}, "phone": "+17134360108", "display_phone": "(713) 436-0108", "distance": 8549.660540491943}, {"id": "jLvTUujTbC9-XVwHxDklDA", "alias": "red-robin-gourmet-burgers-and-brews-pearland", "name": "Red Robin Gourmet Burgers and Brews", "image_url": "https://s3-media3.fl.yelpcdn.com/bphoto/fAPzqUcGYIUF8EkSTB7Oiw/o.jpg", "is_closed": false, "url": "https://www.yelp.com/biz/red-robin-gourmet-burgers-and-brews-pearland?adjust_creative=rZiFgfUX1eajVOVygdFykg&utm_campaign=yelp_api_v3&utm_medium=api_v3_business_search&utm_source=rZiFgfUX1eajVOVygdFykg", "review_count": 141, "categories": [{"alias": "burgers", "title": "Burgers"}, {"alias": "tradamerican", "title": "American (Traditional)"}], "rating": 3.0, "coordinates": {"latitude": 29.55265, "longitude": -95.3939}, "transactions": ["delivery", "pickup"], "price": "$$", "location": {"address1": "11200 Broadway St", "address2": "", "address3": "", "city": "Pearland", "zip_code": "77584", "country": "US", "state": "TX", "display_address": ["11200 Broadway St", "Pearland, TX 77584"]}, "phone": "+17133401272", "display_phone": "(713) 340-1272", "distance": 7532.031410413715}, {"id": "HCijQrL2FL08_9hk1_-Kaw", "alias": "raising-canes-chicken-fingers-pearland-2", "name": "Raising Cane's Chicken Fingers", "image_url": "https://s3-media4.fl.yelpcdn.com/bphoto/jhrTlWH2VQ0StUCu5VKzEg/o.jpg", "is_closed": false, "url": "https://www.yelp.com/biz/raising-canes-chicken-fingers-pearland-2?adjust_creative=rZiFgfUX1eajVOVygdFykg&utm_campaign=yelp_api_v3&utm_medium=api_v3_business_search&utm_source=rZiFgfUX1eajVOVygdFykg", "review_count": 106, "categories": [{"alias": "hotdogs", "title": "Fast Food"}], "rating": 3.5, "coordinates": {"latitude": 29.5570278167725, "longitude": -95.3683700561523}, "transactions": ["delivery"], "price": "$", "location": {"address1": "9527 Broadway St", "address2": "", "address3": "", "city": "Pearland", "zip_code": "77584", "country": "US", "state": "TX", "display_address": ["9527 Broadway St", "Pearland, TX 77584"]}, "phone": "+17134362023", "display_phone": "(713) 436-2023", "distance": 10047.897404077266}, {"id": "9TGMjHdY2Vp08_J4KdixWw", "alias": "smashburger-pearland-2", "name": "Smashburger", "image_url": "https://s3-media3.fl.yelpcdn.com/bphoto/poHwi8mkZTaFbWtS9lJLug/o.jpg", "is_closed": false, "url": "https://www.yelp.com/biz/smashburger-pearland-2?adjust_creative=rZiFgfUX1eajVOVygdFykg&utm_campaign=yelp_api_v3&utm_medium=api_v3_business_search&utm_source=rZiFgfUX1eajVOVygdFykg", "review_count": 123, "categories": [{"alias": "burgers", "title": "Burgers"}, {"alias": "chicken_wings", "title": "Chicken Wings"}, {"alias": "hotdogs", "title": "Fast Food"}], "rating": 3.5, "coordinates": {"latitude": 29.554638902464593, "longitude": -95.37857985115494}, "transactions": ["delivery", "pickup"], "price": "$$", "location": {"address1": "10228 Fm 518", "address2": "Ste 140", "address3": "", "city": "Pearland", "zip_code": "77581", "country": "US", "state": "TX", "display_address": ["10228 Fm 518", "Ste 140", "Pearland, TX 77581"]}, "phone": "+17134365919", "display_phone": "(713) 436-5919", "distance": 9026.77742282218}, {"id": "zcc818cmdAJ6JDiS8ODXAg", "alias": "big-city-wings-pearland", "name": "Big City Wings", "image_url": "https://s3-media2.fl.yelpcdn.com/bphoto/LN4X0h0-lCw3_CvrEIhA0A/o.jpg", "is_closed": false, "url": "https://www.yelp.com/biz/big-city-wings-pearland?adjust_creative=rZiFgfUX1eajVOVygdFykg&utm_campaign=yelp_api_v3&utm_medium=api_v3_business_search&utm_source=rZiFgfUX1eajVOVygdFykg", "review_count": 291, "categories": [{"alias": "chicken_wings", "title": "Chicken Wings"}, {"alias": "burgers", "title": "Burgers"}, {"alias": "sportsbars", "title": "Sports Bars"}], "rating": 3.5, "coordinates": {"latitude": 29.557198, "longitude": -95.371067}, "transactions": ["delivery", "pickup"], "price": "$$", "location": {"address1": "9721 Broadway St", "address2": null, "address3": "", "city": "Pearland", "zip_code": "77584", "country": "US", "state": "TX", "display_address": ["9721 Broadway St", "Pearland, TX 77584"]}, "phone": "+13467545980", "display_phone": "(346) 754-5980", "distance": 9797.744646664849}, {"id": "-wOuHdkxmM5EqCUEaMRtoA", "alias": "imperial-china-diner-pearland", "name": "Imperial China Diner", "image_url": "https://s3-media4.fl.yelpcdn.com/bphoto/aYUh_H3fdqvCtEcjEZbxXg/o.jpg", "is_closed": false, "url": "https://www.yelp.com/biz/imperial-china-diner-pearland?adjust_creative=rZiFgfUX1eajVOVygdFykg&utm_campaign=yelp_api_v3&utm_medium=api_v3_business_search&utm_source=rZiFgfUX1eajVOVygdFykg", "review_count": 113, "categories": [{"alias": "chinese", "title": "Chinese"}], "rating": 3.0, "coordinates": {"latitude": 29.58164, "longitude": -95.390868}, "transactions": ["delivery", "pickup"], "price": "$$", "location": {"address1": "11041 Shadow Creek Pkwy", "address2": "Ste 113", "address3": "", "city": "Pearland", "zip_code": "77047", "country": "US", "state": "TX", "display_address": ["11041 Shadow Creek Pkwy", "Ste 113", "Pearland, TX 77047"]}, "phone": "+17133401366", "display_phone": "(713) 340-1366", "distance": 9070.966372582905}, {"id": "Vix550PwhtK-jjHy9Xc1Sg", "alias": "burger-king-missouri-city-2", "name": "Burger King", "image_url": "https://s3-media1.fl.yelpcdn.com/bphoto/DU6PsSCgHpwrhHWiW4tnIA/o.jpg", "is_closed": false, "url": "https://www.yelp.com/biz/burger-king-missouri-city-2?adjust_creative=rZiFgfUX1eajVOVygdFykg&utm_campaign=yelp_api_v3&utm_medium=api_v3_business_search&utm_source=rZiFgfUX1eajVOVygdFykg", "review_count": 14, "categories": [{"alias": "hotdogs", "title": "Fast Food"}, {"alias": "burgers", "title": "Burgers"}], "rating": 1.5, "coordinates": {"latitude": 29.5315679788813, "longitude": -95.5114486813545}, "transactions": ["delivery"], "price": "$", "location": {"address1": "10210 Highway 6", "address2": "", "address3": "", "city": "Missouri City", "zip_code": "77459", "country": "US", "state": "TX", "display_address": ["10210 Highway 6", "Missouri City, TX 77459"]}, "phone": "+12814317744", "display_phone": "(281) 431-7744", "distance": 4083.2261836651983}, {"id": "8enThogB5aC0_v1eHfOmzw", "alias": "dominos-pizza-rosharon", "name": "Domino's Pizza", "image_url": "https://s3-media3.fl.yelpcdn.com/bphoto/VKTNTDKMwTmAUrN3lAGOxw/o.jpg", "is_closed": false, "url": "https://www.yelp.com/biz/dominos-pizza-rosharon?adjust_creative=rZiFgfUX1eajVOVygdFykg&utm_campaign=yelp_api_v3&utm_medium=api_v3_business_search&utm_source=rZiFgfUX1eajVOVygdFykg", "review_count": 32, "categories": [{"alias": "pizza", "title": "Pizza"}, {"alias": "chicken_wings", "title": "Chicken Wings"}, {"alias": "sandwiches", "title": "Sandwiches"}], "rating": 2.0, "coordinates": {"latitude": 29.4955673, "longitude": -95.4388199}, "transactions": [], "price": "$", "location": {"address1": "15070 Highway 6", "address2": "", "address3": "", "city": "Rosharon", "zip_code": "77583", "country": "US", "state": "TX", "display_address": ["15070 Highway 6", "Rosharon, TX 77583"]}, "phone": "+12814312900", "display_phone": "(281) 431-2900", "distance": 5598.575226357542}, {"id": "9te7HNE0qanWfb2lXtRnkw", "alias": "freebirds-world-burrito-pearland", "name": "Freebirds World Burrito", "image_url": "https://s3-media1.fl.yelpcdn.com/bphoto/DTnLce5IuCkp-4CzaKESLw/o.jpg", "is_closed": false, "url": "https://www.yelp.com/biz/freebirds-world-burrito-pearland?adjust_creative=rZiFgfUX1eajVOVygdFykg&utm_campaign=yelp_api_v3&utm_medium=api_v3_business_search&utm_source=rZiFgfUX1eajVOVygdFykg", "review_count": 130, "categories": [{"alias": "mexican", "title": "Mexican"}, {"alias": "tex-mex", "title": "Tex-Mex"}], "rating": 3.5, "coordinates": {"latitude": 29.55494, "longitude": -95.394671}, "transactions": ["delivery", "pickup"], "price": "$", "location": {"address1": "11302 Broadway", "address2": "Ste 110", "address3": "", "city": "Pearland", "zip_code": "77584", "country": "US", "state": "TX", "display_address": ["11302 Broadway", "Ste 110", "Pearland, TX 77584"]}, "phone": "+12817413337", "display_phone": "(281) 741-3337", "distance": 7520.4357111790005}, {"id": "JR90ka0V2PJfigqGf8iAnw", "alias": "whataburger-houston-94", "name": "Whataburger", "image_url": "https://s3-media2.fl.yelpcdn.com/bphoto/RMoEu_GoFfjaqxfUp9tLbQ/o.jpg", "is_closed": false, "url": "https://www.yelp.com/biz/whataburger-houston-94?adjust_creative=rZiFgfUX1eajVOVygdFykg&utm_campaign=yelp_api_v3&utm_medium=api_v3_business_search&utm_source=rZiFgfUX1eajVOVygdFykg", "review_count": 9, "categories": [{"alias": "burgers", "title": "Burgers"}, {"alias": "hotdogs", "title": "Fast Food"}], "rating": 1.5, "coordinates": {"latitude": 29.61584, "longitude": -95.38724}, "transactions": [], "location": {"address1": "11720 South Freeway", "address2": "", "address3": null, "city": "Houston", "zip_code": "77047", "country": "US", "state": "TX", "display_address": ["11720 South Freeway", "Houston, TX 77047"]}, "phone": "+18326483625", "display_phone": "(832) 648-3625", "distance": 12651.131043858515}, {"id": "WqxGpWs41n0ykMXUPy4Mdg", "alias": "saltgrass-steak-house-pearland", "name": "Saltgrass Steak House", "image_url": "https://s3-media2.fl.yelpcdn.com/bphoto/upJcSYaOLr-7wzmXDGMh6g/o.jpg", "is_closed": false, "url": "https://www.yelp.com/biz/saltgrass-steak-house-pearland?adjust_creative=rZiFgfUX1eajVOVygdFykg&utm_campaign=yelp_api_v3&utm_medium=api_v3_business_search&utm_source=rZiFgfUX1eajVOVygdFykg", "review_count": 194, "categories": [{"alias": "steak", "title": "Steakhouses"}, {"alias": "seafood", "title": "Seafood"}, {"alias": "tradamerican", "title": "American (Traditional)"}], "rating": 3.0, "coordinates": {"latitude": 29.54932, "longitude": -95.38602}, "transactions": ["delivery", "pickup"], "price": "$$", "location": {"address1": "3251 Silverlake Village Dr", "address2": "", "address3": "", "city": "Pearland", "zip_code": "77584", "country": "US", "state": "TX", "display_address": ["3251 Silverlake Village Dr", "Pearland, TX 77584"]}, "phone": "+17134360799", "display_phone": "(713) 436-0799", "distance": 8187.21060327758}, {"id": "TWMwSYkGSdsFboGDWdq90A", "alias": "papa-johns-pizza-pearland", "name": "Papa Johns Pizza", "image_url": "https://s3-media3.fl.yelpcdn.com/bphoto/tg2E9PFbfWBFojypmVcOyg/o.jpg", "is_closed": false, "url": "https://www.yelp.com/biz/papa-johns-pizza-pearland?adjust_creative=rZiFgfUX1eajVOVygdFykg&utm_campaign=yelp_api_v3&utm_medium=api_v3_business_search&utm_source=rZiFgfUX1eajVOVygdFykg", "review_count": 49, "categories": [{"alias": "pizza", "title": "Pizza"}, {"alias": "chicken_wings", "title": "Chicken Wings"}, {"alias": "hotdogs", "title": "Fast Food"}], "rating": 2.0, "coordinates": {"latitude": 29.556666, "longitude": -95.379747}, "transactions": ["delivery", "pickup"], "price": "$", "location": {"address1": "10223 Broadway St", "address2": "Ste S", "address3": "", "city": "Pearland", "zip_code": "77584", "country": "US", "state": "TX", "display_address": ["10223 Broadway St", "Ste S", "Pearland, TX 77584"]}, "phone": "+12814127272", "display_phone": "(281) 412-7272", "distance": 8971.510555034885}, {"id": "lXzyjXkVtOc7x6eaCHAajw", "alias": "pizza-hut-missouri-city-8", "name": "Pizza Hut", "image_url": "https://s3-media3.fl.yelpcdn.com/bphoto/y81pgwz_Z0FKmIfz_fc3YQ/o.jpg", "is_closed": false, "url": "https://www.yelp.com/biz/pizza-hut-missouri-city-8?adjust_creative=rZiFgfUX1eajVOVygdFykg&utm_campaign=yelp_api_v3&utm_medium=api_v3_business_search&utm_source=rZiFgfUX1eajVOVygdFykg", "review_count": 33, "categories": [{"alias": "pizza", "title": "Pizza"}, {"alias": "chicken_wings", "title": "Chicken Wings"}, {"alias": "hotdogs", "title": "Fast Food"}], "rating": 1.5, "coordinates": {"latitude": 29.553863, "longitude": -95.555595}, "transactions": ["delivery"], "price": "$", "location": {"address1": "7110 Hwy 6", "address2": "Ste A", "address3": "", "city": "Missouri City", "zip_code": "77459", "country": "US", "state": "TX", "display_address": ["7110 Hwy 6", "Ste A", "Missouri City, TX 77459"]}, "phone": "+12812083100", "display_phone": "(281) 208-3100", "distance": 8487.435701482098}, {"id": "hzqgrzPrdGJcQLdf4D9_mQ", "alias": "whataburger-pearland-3", "name": "Whataburger", "image_url": "https://s3-media2.fl.yelpcdn.com/bphoto/2U_g0T1VPRs_rkTpWISXYA/o.jpg", "is_closed": false, "url": "https://www.yelp.com/biz/whataburger-pearland-3?adjust_creative=rZiFgfUX1eajVOVygdFykg&utm_campaign=yelp_api_v3&utm_medium=api_v3_business_search&utm_source=rZiFgfUX1eajVOVygdFykg", "review_count": 106, "categories": [{"alias": "burgers", "title": "Burgers"}, {"alias": "hotdogs", "title": "Fast Food"}], "rating": 2.0, "coordinates": {"latitude": 29.5540446, "longitude": -95.38596315459633}, "transactions": ["delivery"], "price": "$", "location": {"address1": "3040 Silverlake Village Dr", "address2": "", "address3": "", "city": "Pearland", "zip_code": "77584", "country": "US", "state": "TX", "display_address": ["3040 Silverlake Village Dr", "Pearland, TX 77584"]}, "phone": "+17134365177", "display_phone": "(713) 436-5177", "distance": 8315.043320601495}, {"id": "r8WyNw_tU6SHQx3DhfhxDQ", "alias": "mcdonalds-missouri-city-4", "name": "McDonald's", "image_url": "https://s3-media3.fl.yelpcdn.com/bphoto/F53DRRz_zuH03X5TrnVk_w/o.jpg", "is_closed": false, "url": "https://www.yelp.com/biz/mcdonalds-missouri-city-4?adjust_creative=rZiFgfUX1eajVOVygdFykg&utm_campaign=yelp_api_v3&utm_medium=api_v3_business_search&utm_source=rZiFgfUX1eajVOVygdFykg", "review_count": 53, "categories": [{"alias": "burgers", "title": "Burgers"}, {"alias": "hotdogs", "title": "Fast Food"}, {"alias": "coffee", "title": "Coffee & Tea"}], "rating": 1.5, "coordinates": {"latitude": 29.583127, "longitude": -95.527353}, "transactions": ["delivery"], "price": "$", "location": {"address1": "1605 Cartwright Rd", "address2": "", "address3": "", "city": "Missouri City", "zip_code": "77489", "country": "US", "state": "TX", "display_address": ["1605 Cartwright Rd", "Missouri City, TX 77489"]}, "phone": "+12818355223", "display_phone": "(281) 835-5223", "distance": 7522.275706675897}, {"id": "Rx0GN__CIgZPRMGlcvraGQ", "alias": "sonic-drive-in-houston-31", "name": "Sonic Drive-In", "image_url": "https://s3-media1.fl.yelpcdn.com/bphoto/_OxIMY_iL02QlGqUGp3Wbg/o.jpg", "is_closed": false, "url": "https://www.yelp.com/biz/sonic-drive-in-houston-31?adjust_creative=rZiFgfUX1eajVOVygdFykg&utm_campaign=yelp_api_v3&utm_medium=api_v3_business_search&utm_source=rZiFgfUX1eajVOVygdFykg", "review_count": 21, "categories": [{"alias": "hotdogs", "title": "Fast Food"}, {"alias": "burgers", "title": "Burgers"}, {"alias": "icecream", "title": "Ice Cream & Frozen Yogurt"}], "rating": 1.0, "coordinates": {"latitude": 29.594041935364, "longitude": -95.4672016278709}, "transactions": ["delivery", "pickup"], "price": "$$", "location": {"address1": "15917-C S Post Oak", "address2": "", "address3": "", "city": "Houston", "zip_code": "77053", "country": "US", "state": "TX", "display_address": ["15917-C S Post Oak", "Houston, TX 77053"]}, "phone": "+12814381215", "display_phone": "(281) 438-1215", "distance": 6280.118617045942}, {"id": "CsG_rrBA6Ih9LeEr2S99uQ", "alias": "wendys-pearland-3", "name": "Wendy's", "image_url": "https://s3-media2.fl.yelpcdn.com/bphoto/WYVcgQMSKX-HVX4wqYu8aQ/o.jpg", "is_closed": false, "url": "https://www.yelp.com/biz/wendys-pearland-3?adjust_creative=rZiFgfUX1eajVOVygdFykg&utm_campaign=yelp_api_v3&utm_medium=api_v3_business_search&utm_source=rZiFgfUX1eajVOVygdFykg", "review_count": 34, "categories": [{"alias": "hotdogs", "title": "Fast Food"}, {"alias": "burgers", "title": "Burgers"}], "rating": 1.5, "coordinates": {"latitude": 29.5413281, "longitude": -95.3925387962579}, "transactions": ["delivery"], "price": "$", "location": {"address1": "11011 Cr 59", "address2": "", "address3": "", "city": "Pearland", "zip_code": "77584", "country": "US", "state": "TX", "display_address": ["11011 Cr 59", "Pearland, TX 77584"]}, "phone": "+12818167212", "display_phone": "(281) 816-7212", "distance": 7487.528067323635}, {"id": "ghpf9Kq4k-v5ALdCrjbjow", "alias": "chick-fil-a-pearland-4", "name": "Chick-fil-A", "image_url": "https://s3-media1.fl.yelpcdn.com/bphoto/l3Q1TPDjMGe_QQzizjZTpg/o.jpg", "is_closed": false, "url": "https://www.yelp.com/biz/chick-fil-a-pearland-4?adjust_creative=rZiFgfUX1eajVOVygdFykg&utm_campaign=yelp_api_v3&utm_medium=api_v3_business_search&utm_source=rZiFgfUX1eajVOVygdFykg", "review_count": 82, "categories": [{"alias": "hotdogs", "title": "Fast Food"}, {"alias": "chickenshop", "title": "Chicken Shop"}, {"alias": "salad", "title": "Salad"}], "rating": 2.0, "coordinates": {"latitude": 29.5800417, "longitude": -95.3986772}, "transactions": ["delivery"], "price": "$", "location": {"address1": "11629 Shadow Creek Pkwy", "address2": "", "address3": "", "city": "Pearland", "zip_code": "77584", "country": "US", "state": "TX", "display_address": ["11629 Shadow Creek Pkwy", "Pearland, TX 77584"]}, "phone": "+17133401190", "display_phone": "(713) 340-1190", "distance": 8343.22670770144}, {"id": "2fLNuRe2-uhGuCTmMqYU-g", "alias": "dennys-missouri-city", "name": "Denny's", "image_url": "https://s3-media4.fl.yelpcdn.com/bphoto/zgDfR-qSmN8XwVX1iGaHbQ/o.jpg", "is_closed": false, "url": "https://www.yelp.com/biz/dennys-missouri-city?adjust_creative=rZiFgfUX1eajVOVygdFykg&utm_campaign=yelp_api_v3&utm_medium=api_v3_business_search&utm_source=rZiFgfUX1eajVOVygdFykg", "review_count": 93, "categories": [{"alias": "tradamerican", "title": "American (Traditional)"}, {"alias": "breakfast_brunch", "title": "Breakfast & Brunch"}, {"alias": "diners", "title": "Diners"}], "rating": 2.0, "coordinates": {"latitude": 29.567578, "longitude": -95.565296}, "transactions": ["delivery", "pickup"], "price": "$", "location": {"address1": "6131 Highway 6 S", "address2": "", "address3": "", "city": "Missouri City", "zip_code": "77459", "country": "US", "state": "TX", "display_address": ["6131 Highway 6 S", "Missouri City, TX 77459"]}, "phone": "+12812082231", "display_phone": "(281) 208-2231", "distance": 9819.72799921558}, {"id": "Pql6fHY89HmU2xYit08FIw", "alias": "sonic-drive-in-pearland-7", "name": "Sonic Drive-In", "image_url": "https://s3-media4.fl.yelpcdn.com/bphoto/RxeMWY-kKm2Ez5MaXc2BKQ/o.jpg", "is_closed": false, "url": "https://www.yelp.com/biz/sonic-drive-in-pearland-7?adjust_creative=rZiFgfUX1eajVOVygdFykg&utm_campaign=yelp_api_v3&utm_medium=api_v3_business_search&utm_source=rZiFgfUX1eajVOVygdFykg", "review_count": 80, "categories": [{"alias": "hotdogs", "title": "Fast Food"}, {"alias": "burgers", "title": "Burgers"}, {"alias": "icecream", "title": "Ice Cream & Frozen Yogurt"}], "rating": 1.5, "coordinates": {"latitude": 29.580023022486703, "longitude": -95.3947216272354}, "transactions": ["delivery", "pickup"], "price": "$", "location": {"address1": "11309 Shadow Creek Pkwy", "address2": null, "address3": null, "city": "Pearland", "zip_code": "77581", "country": "US", "state": "TX", "display_address": ["11309 Shadow Creek Pkwy", "Pearland, TX 77581"]}, "phone": "+17133400806", "display_phone": "(713) 340-0806", "distance": 8660.337246543324}, {"id": "yL9NHTjSqj08lKCZfaalFQ", "alias": "mcdonalds-pearland", "name": "McDonald's", "image_url": "https://s3-media4.fl.yelpcdn.com/bphoto/_DyOR7IJMKQf4fYnyVEMVg/o.jpg", "is_closed": false, "url": "https://www.yelp.com/biz/mcdonalds-pearland?adjust_creative=rZiFgfUX1eajVOVygdFykg&utm_campaign=yelp_api_v3&utm_medium=api_v3_business_search&utm_source=rZiFgfUX1eajVOVygdFykg", "review_count": 74, "categories": [{"alias": "burgers", "title": "Burgers"}, {"alias": "hotdogs", "title": "Fast Food"}, {"alias": "coffee", "title": "Coffee & Tea"}], "rating": 2.0, "coordinates": {"latitude": 29.5568766399921, "longitude": -95.3908994793892}, "transactions": ["delivery"], "price": "$", "location": {"address1": "2815 Business Center Dr", "address2": null, "address3": null, "city": "Pearland", "zip_code": "77584", "country": "US", "state": "TX", "display_address": ["2815 Business Center Dr", "Pearland, TX 77584"]}, "phone": "+17134369095", "display_phone": "(713) 436-9095", "distance": 7929.031481053747}, {"id": "8mDzOO_wbNlpbkYd2JsrVw", "alias": "pizza-hut-missouri-city", "name": "Pizza Hut", "image_url": "https://s3-media3.fl.yelpcdn.com/bphoto/JlzJlezJB3jgCRg3g92T7w/o.jpg", "is_closed": false, "url": "https://www.yelp.com/biz/pizza-hut-missouri-city?adjust_creative=rZiFgfUX1eajVOVygdFykg&utm_campaign=yelp_api_v3&utm_medium=api_v3_business_search&utm_source=rZiFgfUX1eajVOVygdFykg", "review_count": 78, "categories": [{"alias": "pizza", "title": "Pizza"}, {"alias": "chicken_wings", "title": "Chicken Wings"}, {"alias": "hotdogs", "title": "Fast Food"}], "rating": 1.0, "coordinates": {"latitude": 29.59467, "longitude": -95.52731}, "transactions": ["delivery"], "price": "$", "location": {"address1": "2292 Fm 2234 Rd", "address2": "", "address3": "Texas Parkway", "city": "Missouri City", "zip_code": "77489", "country": "US", "state": "TX", "display_address": ["2292 Fm 2234 Rd", "Texas Parkway", "Missouri City, TX 77489"]}, "phone": "+12812616611", "display_phone": "(281) 261-6611", "distance": 6097.795050761844}, {"id": "Iefnk-ufTrhktyy-nNe80A", "alias": "panera-bread-pearland", "name": "Panera Bread", "image_url": "https://s3-media1.fl.yelpcdn.com/bphoto/a7skIKavj9FmASpyAKXUcQ/o.jpg", "is_closed": false, "url": "https://www.yelp.com/biz/panera-bread-pearland?adjust_creative=rZiFgfUX1eajVOVygdFykg&utm_campaign=yelp_api_v3&utm_medium=api_v3_business_search&utm_source=rZiFgfUX1eajVOVygdFykg", "review_count": 157, "categories": [{"alias": "sandwiches", "title": "Sandwiches"}, {"alias": "salad", "title": "Salad"}, {"alias": "soup", "title": "Soup"}], "rating": 2.5, "coordinates": {"latitude": 29.556618, "longitude": -95.38526}, "transactions": ["pickup", "delivery"], "price": "$", "location": {"address1": "10621 Broadway Street", "address2": "Suite 113", "address3": "", "city": "Pearland", "zip_code": "77584", "country": "US", "state": "TX", "display_address": ["10621 Broadway Street", "Suite 113", "Pearland, TX 77584"]}, "phone": "+17134366300", "display_phone": "(713) 436-6300", "distance": 8448.672700374816}, {"id": "F16oXkz5VQzpllz_G9hRVg", "alias": "sonic-drive-in-missouri-city-4", "name": "Sonic Drive-In", "image_url": "https://s3-media4.fl.yelpcdn.com/bphoto/MqR4-AZ0Keyu2EpPkgvt2Q/o.jpg", "is_closed": false, "url": "https://www.yelp.com/biz/sonic-drive-in-missouri-city-4?adjust_creative=rZiFgfUX1eajVOVygdFykg&utm_campaign=yelp_api_v3&utm_medium=api_v3_business_search&utm_source=rZiFgfUX1eajVOVygdFykg", "review_count": 61, "categories": [{"alias": "burgers", "title": "Burgers"}, {"alias": "hotdogs", "title": "Fast Food"}, {"alias": "icecream", "title": "Ice Cream & Frozen Yogurt"}], "rating": 1.5, "coordinates": {"latitude": 29.54196, "longitude": -95.54919}, "transactions": ["pickup", "delivery"], "price": "$", "location": {"address1": "6126 Sienna Ranch Rd", "address2": "", "address3": "", "city": "Missouri City", "zip_code": "77459", "country": "US", "state": "TX", "display_address": ["6126 Sienna Ranch Rd", "Missouri City, TX 77459"]}, "phone": "+18325393455", "display_phone": "(832) 539-3455", "distance": 7690.502375038438}, {"id": "nQxjczXTzqptsTfIMP3goA", "alias": "wendys-pearland-2", "name": "Wendy's", "image_url": "https://s3-media3.fl.yelpcdn.com/bphoto/HVrsEeDu36zocr-erVeRVw/o.jpg", "is_closed": false, "url": "https://www.yelp.com/biz/wendys-pearland-2?adjust_creative=rZiFgfUX1eajVOVygdFykg&utm_campaign=yelp_api_v3&utm_medium=api_v3_business_search&utm_source=rZiFgfUX1eajVOVygdFykg", "review_count": 55, "categories": [{"alias": "burgers", "title": "Burgers"}, {"alias": "hotdogs", "title": "Fast Food"}], "rating": 1.5, "coordinates": {"latitude": 29.5549064, "longitude": -95.4004321081907}, "transactions": ["delivery"], "price": "$", "location": {"address1": "11630 Broadway Street", "address2": "", "address3": "", "city": "Pearland", "zip_code": "77584", "country": "US", "state": "TX", "display_address": ["11630 Broadway Street", "Pearland, TX 77584"]}, "phone": "+12819947669", "display_phone": "(281) 994-7669", "distance": 6982.174966048093}, {"id": "8STDO5TWvfIN71APSZDDwg", "alias": "whataburger-houston-14", "name": "Whataburger", "image_url": "https://s3-media2.fl.yelpcdn.com/bphoto/TeAQw3WEU8gGlW9yHc_MUA/o.jpg", "is_closed": false, "url": "https://www.yelp.com/biz/whataburger-houston-14?adjust_creative=rZiFgfUX1eajVOVygdFykg&utm_campaign=yelp_api_v3&utm_medium=api_v3_business_search&utm_source=rZiFgfUX1eajVOVygdFykg", "review_count": 57, "categories": [{"alias": "hotdogs", "title": "Fast Food"}, {"alias": "burgers", "title": "Burgers"}], "rating": 2.0, "coordinates": {"latitude": 29.61570709158856, "longitude": -95.4963344335556}, "transactions": ["delivery"], "price": "$", "location": {"address1": "7418 S Sam Houston Pkwy W", "address2": null, "address3": null, "city": "Houston", "zip_code": "77085", "country": "US", "state": "TX", "display_address": ["7418 S Sam Houston Pkwy W", "Houston, TX 77085"]}, "phone": "+17132831070", "display_phone": "(713) 283-1070", "distance": 9054.756251260702}, {"id": "7uv14f8iKOh3G2wv3ijeuw", "alias": "mcdonalds-missouri-city-3", "name": "McDonald's", "image_url": "https://s3-media3.fl.yelpcdn.com/bphoto/ta28zyfBi-L8vSALcE_kKw/o.jpg", "is_closed": false, "url": "https://www.yelp.com/biz/mcdonalds-missouri-city-3?adjust_creative=rZiFgfUX1eajVOVygdFykg&utm_campaign=yelp_api_v3&utm_medium=api_v3_business_search&utm_source=rZiFgfUX1eajVOVygdFykg", "review_count": 45, "categories": [{"alias": "hotdogs", "title": "Fast Food"}, {"alias": "burgers", "title": "Burgers"}, {"alias": "coffee", "title": "Coffee & Tea"}], "rating": 2.0, "coordinates": {"latitude": 29.5680518756014, "longitude": -95.5656386911869}, "transactions": ["delivery"], "price": "$", "location": {"address1": "6129 Hwy 6 S", "address2": "", "address3": "", "city": "Missouri City", "zip_code": "77459", "country": "US", "state": "TX", "display_address": ["6129 Hwy 6 S", "Missouri City, TX 77459"]}, "phone": "+12812081428", "display_phone": "(281) 208-1428", "distance": 9867.380662601072}, {"id": "HMmypMOzSmUYuwBZsvEvlQ", "alias": "sonic-drive-in-missouri-city-3", "name": "Sonic Drive-In", "image_url": "https://s3-media1.fl.yelpcdn.com/bphoto/ETbBqRZWHhLQlFVrtsESQQ/o.jpg", "is_closed": false, "url": "https://www.yelp.com/biz/sonic-drive-in-missouri-city-3?adjust_creative=rZiFgfUX1eajVOVygdFykg&utm_campaign=yelp_api_v3&utm_medium=api_v3_business_search&utm_source=rZiFgfUX1eajVOVygdFykg", "review_count": 54, "categories": [{"alias": "burgers", "title": "Burgers"}, {"alias": "hotdogs", "title": "Fast Food"}, {"alias": "icecream", "title": "Ice Cream & Frozen Yogurt"}], "rating": 1.5, "coordinates": {"latitude": 29.5696977270304, "longitude": -95.567123}, "transactions": [], "price": "$", "location": {"address1": "5805 Highway 6 S", "address2": "", "address3": "", "city": "Missouri City", "zip_code": "77459", "country": "US", "state": "TX", "display_address": ["5805 Highway 6 S", "Missouri City, TX 77459"]}, "phone": "+12814993282", "display_phone": "(281) 499-3282", "distance": 10065.70097864086}, {"id": "X4ko_5N_3OqtN23uolAldA", "alias": "whataburger-missouri-city-4", "name": "Whataburger", "image_url": "https://s3-media1.fl.yelpcdn.com/bphoto/of99LumwubSR7gjaSNtE5g/o.jpg", "is_closed": false, "url": "https://www.yelp.com/biz/whataburger-missouri-city-4?adjust_creative=rZiFgfUX1eajVOVygdFykg&utm_campaign=yelp_api_v3&utm_medium=api_v3_business_search&utm_source=rZiFgfUX1eajVOVygdFykg", "review_count": 40, "categories": [{"alias": "burgers", "title": "Burgers"}, {"alias": "hotdogs", "title": "Fast Food"}], "rating": 2.0, "coordinates": {"latitude": 29.566388, "longitude": -95.566026}, "transactions": ["delivery"], "location": {"address1": "5970 Hwy 6", "address2": null, "address3": null, "city": "Missouri City", "zip_code": "77459", "country": "US", "state": "TX", "display_address": ["5970 Hwy 6", "Missouri City, TX 77459"]}, "phone": "+18323429607", "display_phone": "(832) 342-9607", "distance": 9840.943306002324}, {"id": "aQzNTHFx5IVQ65dqOvGpPA", "alias": "burger-king-pearland-3", "name": "Burger King", "image_url": "https://s3-media2.fl.yelpcdn.com/bphoto/nC6RHnZFclLIJHwTfZj4_A/o.jpg", "is_closed": false, "url": "https://www.yelp.com/biz/burger-king-pearland-3?adjust_creative=rZiFgfUX1eajVOVygdFykg&utm_campaign=yelp_api_v3&utm_medium=api_v3_business_search&utm_source=rZiFgfUX1eajVOVygdFykg", "review_count": 26, "categories": [{"alias": "burgers", "title": "Burgers"}, {"alias": "hotdogs", "title": "Fast Food"}], "rating": 2.0, "coordinates": {"latitude": 29.555236, "longitude": -95.395732}, "transactions": ["delivery"], "price": "$", "location": {"address1": "11310 Broadway St", "address2": null, "address3": null, "city": "Pearland", "zip_code": "77584", "country": "US", "state": "TX", "display_address": ["11310 Broadway St", "Pearland, TX 77584"]}, "phone": "+17134369407", "display_phone": "(713) 436-9407", "distance": 7429.001145011461}, {"id": "a3hC36AR1nXHX6rXXz_MCQ", "alias": "thai-cottage-pearland-pearland-2", "name": "Thai Cottage Pearland", "image_url": "https://s3-media3.fl.yelpcdn.com/bphoto/HYCHIkIV1Me7qtKm3_Q7iw/o.jpg", "is_closed": false, "url": "https://www.yelp.com/biz/thai-cottage-pearland-pearland-2?adjust_creative=rZiFgfUX1eajVOVygdFykg&utm_campaign=yelp_api_v3&utm_medium=api_v3_business_search&utm_source=rZiFgfUX1eajVOVygdFykg", "review_count": 145, "categories": [{"alias": "thai", "title": "Thai"}], "rating": 3.5, "coordinates": {"latitude": 29.557016, "longitude": -95.392195}, "transactions": ["pickup", "delivery"], "price": "$$", "location": {"address1": "2810 Business Center Dr", "address2": "Ste 122", "address3": "", "city": "Pearland", "zip_code": "77584", "country": "US", "state": "TX", "display_address": ["2810 Business Center Dr", "Ste 122", "Pearland, TX 77584"]}, "phone": "+17133401400", "display_phone": "(713) 340-1400", "distance": 7812.706599739371}, {"id": "4dXZ-9CdrzSs6QKCsVsFtg", "alias": "pei-wei-asian-kitchen-pearland-5", "name": "Pei Wei Asian Kitchen", "image_url": "https://s3-media2.fl.yelpcdn.com/bphoto/yJdFH-vP4a_U6GGHaUjlbQ/o.jpg", "is_closed": false, "url": "https://www.yelp.com/biz/pei-wei-asian-kitchen-pearland-5?adjust_creative=rZiFgfUX1eajVOVygdFykg&utm_campaign=yelp_api_v3&utm_medium=api_v3_business_search&utm_source=rZiFgfUX1eajVOVygdFykg", "review_count": 131, "categories": [{"alias": "asianfusion", "title": "Asian Fusion"}, {"alias": "chinese", "title": "Chinese"}, {"alias": "gluten_free", "title": "Gluten-Free"}], "rating": 3.0, "coordinates": {"latitude": 29.55523, "longitude": -95.39476853189063}, "transactions": ["pickup", "delivery"], "price": "$", "location": {"address1": "11302 Broadway St", "address2": "", "address3": "", "city": "Pearland", "zip_code": "77584", "country": "US", "state": "TX", "display_address": ["11302 Broadway St", "Pearland, TX 77584"]}, "phone": "+17134363840", "display_phone": "(713) 436-3840", "distance": 7519.644007330724}, {"id": "sPamWZ5roaCFD8aRSeMfEw", "alias": "papa-johns-pizza-houston-60", "name": "Papa Johns Pizza", "image_url": "https://s3-media4.fl.yelpcdn.com/bphoto/VRHk3kS9WPWZzooKI6lniA/o.jpg", "is_closed": false, "url": "https://www.yelp.com/biz/papa-johns-pizza-houston-60?adjust_creative=rZiFgfUX1eajVOVygdFykg&utm_campaign=yelp_api_v3&utm_medium=api_v3_business_search&utm_source=rZiFgfUX1eajVOVygdFykg", "review_count": 14, "categories": [{"alias": "pizza", "title": "Pizza"}, {"alias": "chicken_wings", "title": "Chicken Wings"}, {"alias": "hotdogs", "title": "Fast Food"}], "rating": 2.0, "coordinates": {"latitude": 29.6136337902747, "longitude": -95.4450422609218}, "transactions": ["pickup", "delivery"], "price": "$", "location": {"address1": "4458 W Fuqua St", "address2": "Ste 100", "address3": null, "city": "Houston", "zip_code": "77045", "country": "US", "state": "TX", "display_address": ["4458 W Fuqua St", "Ste 100", "Houston, TX 77045"]}, "phone": "+17134347272", "display_phone": "(713) 434-7272", "distance": 8786.520824018658}, {"id": "-Fu1P9JkZ_aXCLzO9fbyCA", "alias": "papa-johns-pizza-missouri-city", "name": "Papa Johns Pizza", "image_url": "https://s3-media4.fl.yelpcdn.com/bphoto/dBPvnJR1s7cBWMDpsHQArw/o.jpg", "is_closed": false, "url": "https://www.yelp.com/biz/papa-johns-pizza-missouri-city?adjust_creative=rZiFgfUX1eajVOVygdFykg&utm_campaign=yelp_api_v3&utm_medium=api_v3_business_search&utm_source=rZiFgfUX1eajVOVygdFykg", "review_count": 33, "categories": [{"alias": "pizza", "title": "Pizza"}, {"alias": "chicken_wings", "title": "Chicken Wings"}, {"alias": "hotdogs", "title": "Fast Food"}], "rating": 2.0, "coordinates": {"latitude": 29.563157, "longitude": -95.563249}, "transactions": ["pickup", "delivery"], "price": "$", "location": {"address1": "6262 Highway 6", "address2": "", "address3": "", "city": "Missouri City", "zip_code": "77459", "country": "US", "state": "TX", "display_address": ["6262 Highway 6", "Missouri City, TX 77459"]}, "phone": "+12812083737", "display_phone": "(281) 208-3737", "distance": 9476.776422777753}, {"id": "pyLrj8vwMNSxsZNfidYzJQ", "alias": "chilis-pearland-3", "name": "Chili's", "image_url": "https://s3-media2.fl.yelpcdn.com/bphoto/OwaZUJsrmYrgePD13bSCJw/o.jpg", "is_closed": false, "url": "https://www.yelp.com/biz/chilis-pearland-3?adjust_creative=rZiFgfUX1eajVOVygdFykg&utm_campaign=yelp_api_v3&utm_medium=api_v3_business_search&utm_source=rZiFgfUX1eajVOVygdFykg", "review_count": 193, "categories": [{"alias": "tex-mex", "title": "Tex-Mex"}, {"alias": "bars", "title": "Bars"}, {"alias": "tradamerican", "title": "American (Traditional)"}], "rating": 2.0, "coordinates": {"latitude": 29.5538, "longitude": -95.38581}, "transactions": ["pickup", "delivery"], "price": "$$", "location": {"address1": "3030 Silverlake Village Dr", "address2": "", "address3": "", "city": "Pearland", "zip_code": "77584", "country": "US", "state": "TX", "display_address": ["3030 Silverlake Village Dr", "Pearland, TX 77584"]}, "phone": "+17134364790", "display_phone": "(713) 436-4790", "distance": 8369.004280882631}, {"id": "aOI3SU9YdRpw_pX6sA5rIw", "alias": "papa-johns-pizza-houston-36", "name": "Papa Johns Pizza", "image_url": "https://s3-media4.fl.yelpcdn.com/bphoto/PLSp_6DZ1oLrvh5oVwrZaw/o.jpg", "is_closed": false, "url": "https://www.yelp.com/biz/papa-johns-pizza-houston-36?adjust_creative=rZiFgfUX1eajVOVygdFykg&utm_campaign=yelp_api_v3&utm_medium=api_v3_business_search&utm_source=rZiFgfUX1eajVOVygdFykg", "review_count": 26, "categories": [{"alias": "pizza", "title": "Pizza"}, {"alias": "chicken_wings", "title": "Chicken Wings"}, {"alias": "hotdogs", "title": "Fast Food"}], "rating": 1.5, "coordinates": {"latitude": 29.62169978614573, "longitude": -95.50879703404404}, "transactions": ["pickup", "delivery"], "price": "$", "location": {"address1": "8420 S Sam Houston Pkwy W", "address2": "Ste 250", "address3": "", "city": "Houston", "zip_code": "77085", "country": "US", "state": "TX", "display_address": ["8420 S Sam Houston Pkwy W", "Ste 250", "Houston, TX 77085"]}, "phone": "+17137218383", "display_phone": "(713) 721-8383", "distance": 10081.59938959559}, {"id": "qrc4diJndTfV4JD3z29xlg", "alias": "chick-fil-a-pearland-8", "name": "Chick-fil-A", "image_url": "https://s3-media3.fl.yelpcdn.com/bphoto/cRCf-mK5x0yRSQ5cKYBVJw/o.jpg", "is_closed": false, "url": "https://www.yelp.com/biz/chick-fil-a-pearland-8?adjust_creative=rZiFgfUX1eajVOVygdFykg&utm_campaign=yelp_api_v3&utm_medium=api_v3_business_search&utm_source=rZiFgfUX1eajVOVygdFykg", "review_count": 59, "categories": [{"alias": "hotdogs", "title": "Fast Food"}, {"alias": "chickenshop", "title": "Chicken Shop"}, {"alias": "salad", "title": "Salad"}], "rating": 2.5, "coordinates": {"latitude": 29.541803, "longitude": -95.389035}, "transactions": ["delivery"], "price": "$", "location": {"address1": "3621 Business Center Dr", "address2": "", "address3": null, "city": "Pearland", "zip_code": "77584", "country": "US", "state": "TX", "display_address": ["3621 Business Center Dr", "Pearland, TX 77584"]}, "phone": "+17134360544", "display_phone": "(713) 436-0544", "distance": 7828.944371084337}, {"id": "RweHJV2eSQmbgQUZKC7Jng", "alias": "dennys-pearland", "name": "Denny's", "image_url": "https://s3-media3.fl.yelpcdn.com/bphoto/TIm8U0Fn-4LwpLuRTBofdQ/o.jpg", "is_closed": false, "url": "https://www.yelp.com/biz/dennys-pearland?adjust_creative=rZiFgfUX1eajVOVygdFykg&utm_campaign=yelp_api_v3&utm_medium=api_v3_business_search&utm_source=rZiFgfUX1eajVOVygdFykg", "review_count": 77, "categories": [{"alias": "tradamerican", "title": "American (Traditional)"}, {"alias": "diners", "title": "Diners"}, {"alias": "breakfast_brunch", "title": "Breakfast & Brunch"}], "rating": 2.5, "coordinates": {"latitude": 29.556259, "longitude": -95.394747635582}, "transactions": [], "price": "$", "location": {"address1": "11221 Broadway Blvd", "address2": "", "address3": "", "city": "Pearland", "zip_code": "77581", "country": "US", "state": "TX", "display_address": ["11221 Broadway Blvd", "Pearland, TX 77581"]}, "phone": "+17134363449", "display_phone": "(713) 436-3449", "distance": 7552.173641766653}, {"id": "NsS22MiMWh5d9qXhiPZKpg", "alias": "marcos-pizza-stafford", "name": "Marco's Pizza", "image_url": "https://s3-media2.fl.yelpcdn.com/bphoto/N_t-lvuDOvbTdIahUbaxew/o.jpg", "is_closed": false, "url": "https://www.yelp.com/biz/marcos-pizza-stafford?adjust_creative=rZiFgfUX1eajVOVygdFykg&utm_campaign=yelp_api_v3&utm_medium=api_v3_business_search&utm_source=rZiFgfUX1eajVOVygdFykg", "review_count": 40, "categories": [{"alias": "pizza", "title": "Pizza"}, {"alias": "italian", "title": "Italian"}], "rating": 2.5, "coordinates": {"latitude": 29.62050017137633, "longitude": -95.56926765121516}, "transactions": ["pickup", "delivery"], "price": "$$", "location": {"address1": "3623 S Main St", "address2": "Ste 113", "address3": "", "city": "Stafford", "zip_code": "77477", "country": "US", "state": "TX", "display_address": ["3623 S Main St", "Ste 113", "Stafford, TX 77477"]}, "phone": "+18329871455", "display_phone": "(832) 987-1455", "distance": 13320.753533451732}, {"id": "NNzuOETfN8mkgRVtdCvIzw", "alias": "pizza-hut-houston-68", "name": "Pizza Hut", "image_url": "https://s3-media4.fl.yelpcdn.com/bphoto/ZutlZV_jVQ7WesQ1dxn5Ag/o.jpg", "is_closed": false, "url": "https://www.yelp.com/biz/pizza-hut-houston-68?adjust_creative=rZiFgfUX1eajVOVygdFykg&utm_campaign=yelp_api_v3&utm_medium=api_v3_business_search&utm_source=rZiFgfUX1eajVOVygdFykg", "review_count": 24, "categories": [{"alias": "pizza", "title": "Pizza"}, {"alias": "chicken_wings", "title": "Chicken Wings"}, {"alias": "hotdogs", "title": "Fast Food"}], "rating": 1.0, "coordinates": {"latitude": 29.61325, "longitude": -95.44322}, "transactions": ["delivery"], "price": "$", "location": {"address1": "4407 W Fuqua Rd", "address2": "Ste H", "address3": "", "city": "Houston", "zip_code": "77053", "country": "US", "state": "TX", "display_address": ["4407 W Fuqua Rd", "Ste H", "Houston, TX 77053"]}, "phone": "+17134345566", "display_phone": "(713) 434-5566", "distance": 8781.254687819597}, {"id": "f8P06uPQsuqj66XxEcyclQ", "alias": "sonic-drive-in-manvel", "name": "Sonic Drive-In", "image_url": "https://s3-media1.fl.yelpcdn.com/bphoto/Iw38__wOKVuKcOffQF_KlQ/o.jpg", "is_closed": false, "url": "https://www.yelp.com/biz/sonic-drive-in-manvel?adjust_creative=rZiFgfUX1eajVOVygdFykg&utm_campaign=yelp_api_v3&utm_medium=api_v3_business_search&utm_source=rZiFgfUX1eajVOVygdFykg", "review_count": 24, "categories": [{"alias": "hotdogs", "title": "Fast Food"}, {"alias": "burgers", "title": "Burgers"}, {"alias": "icecream", "title": "Ice Cream & Frozen Yogurt"}], "rating": 2.0, "coordinates": {"latitude": 29.4803928, "longitude": -95.3970842}, "transactions": [], "price": "$", "location": {"address1": "17518 State Highway 6", "address2": null, "address3": null, "city": "MANVEL", "zip_code": "77578", "country": "US", "state": "TX", "display_address": ["17518 State Highway 6", "MANVEL, TX 77578"]}, "phone": "+12814895252", "display_phone": "(281) 489-5252", "distance": 9487.76229155641}, {"id": "4pkBI96-QTP3wA_6TD8woA", "alias": "subway-missouri-city-14", "name": "Subway", "image_url": "https://s3-media2.fl.yelpcdn.com/bphoto/VMMqP8Zpr9RrwZRzRL-dcw/o.jpg", "is_closed": false, "url": "https://www.yelp.com/biz/subway-missouri-city-14?adjust_creative=rZiFgfUX1eajVOVygdFykg&utm_campaign=yelp_api_v3&utm_medium=api_v3_business_search&utm_source=rZiFgfUX1eajVOVygdFykg", "review_count": 10, "categories": [{"alias": "sandwiches", "title": "Sandwiches"}, {"alias": "hotdogs", "title": "Fast Food"}], "rating": 3.0, "coordinates": {"latitude": 29.5632299040985, "longitude": -95.5632550975359}, "transactions": ["delivery", "pickup"], "price": "$", "location": {"address1": "6260 State Hwy 6", "address2": "", "address3": "", "city": "Missouri City", "zip_code": "77459", "country": "US", "state": "TX", "display_address": ["6260 State Hwy 6", "Missouri City, TX 77459"]}, "phone": "+12812083360", "display_phone": "(281) 208-3360", "distance": 9476.592350959445}, {"id": "iP4K5h-r73L3Rn60OYIjcg", "alias": "kfc-houston-29", "name": "KFC", "image_url": "https://s3-media2.fl.yelpcdn.com/bphoto/w4UBIYJ4nLIgIsrQDJRbrw/o.jpg", "is_closed": false, "url": "https://www.yelp.com/biz/kfc-houston-29?adjust_creative=rZiFgfUX1eajVOVygdFykg&utm_campaign=yelp_api_v3&utm_medium=api_v3_business_search&utm_source=rZiFgfUX1eajVOVygdFykg", "review_count": 20, "categories": [{"alias": "hotdogs", "title": "Fast Food"}, {"alias": "chicken_wings", "title": "Chicken Wings"}, {"alias": "chickenshop", "title": "Chicken Shop"}], "rating": 1.5, "coordinates": {"latitude": 29.613712, "longitude": -95.438794}, "transactions": ["delivery", "pickup"], "price": "$", "location": {"address1": "4044 W Fuqua St", "address2": "", "address3": "", "city": "Houston", "zip_code": "77045", "country": "US", "state": "TX", "display_address": ["4044 W Fuqua St", "Houston, TX 77045"]}, "phone": "+17134334731", "display_phone": "(713) 433-4731", "distance": 8977.959782040967}, {"id": "w_VLq2go9Qwqdogh4GrVkA", "alias": "mcdonalds-pearland-9", "name": "McDonald's", "image_url": "https://s3-media3.fl.yelpcdn.com/bphoto/4gYdouEtpDLafdFW2oGklQ/o.jpg", "is_closed": false, "url": "https://www.yelp.com/biz/mcdonalds-pearland-9?adjust_creative=rZiFgfUX1eajVOVygdFykg&utm_campaign=yelp_api_v3&utm_medium=api_v3_business_search&utm_source=rZiFgfUX1eajVOVygdFykg", "review_count": 11, "categories": [{"alias": "burgers", "title": "Burgers"}, {"alias": "hotdogs", "title": "Fast Food"}, {"alias": "coffee", "title": "Coffee & Tea"}], "rating": 1.5, "coordinates": {"latitude": 29.55765148065165, "longitude": -95.382121}, "transactions": ["delivery"], "price": "$", "location": {"address1": "10505 W Broadway St", "address2": "", "address3": "", "city": "Pearland", "zip_code": "77584", "country": "US", "state": "TX", "display_address": ["10505 W Broadway St", "Pearland, TX 77584"]}, "phone": "+17134366334", "display_phone": "(713) 436-6334", "distance": 8771.09359757154}, {"id": "T1MgsiHir1sbk_8tXyfu7g", "alias": "tropical-smoothie-cafe-stafford-4", "name": "Tropical Smoothie Cafe", "image_url": "https://s3-media3.fl.yelpcdn.com/bphoto/DqB6-3c1ZtN2qmqJrkjN-A/o.jpg", "is_closed": false, "url": "https://www.yelp.com/biz/tropical-smoothie-cafe-stafford-4?adjust_creative=rZiFgfUX1eajVOVygdFykg&utm_campaign=yelp_api_v3&utm_medium=api_v3_business_search&utm_source=rZiFgfUX1eajVOVygdFykg", "review_count": 50, "categories": [{"alias": "juicebars", "title": "Juice Bars & Smoothies"}, {"alias": "wraps", "title": "Wraps"}, {"alias": "sandwiches", "title": "Sandwiches"}], "rating": 2.5, "coordinates": {"latitude": 29.619784, "longitude": -95.568032}, "transactions": ["delivery", "pickup"], "price": "$", "location": {"address1": "3607 S Main St", "address2": "Ste 114", "address3": null, "city": "Stafford", "zip_code": "77477", "country": "US", "state": "TX", "display_address": ["3607 S Main St", "Ste 114", "Stafford, TX 77477"]}, "phone": "+12819026454", "display_phone": "(281) 902-6454", "distance": 13179.431669404228}, {"id": "pfV1KmCG7e2jzgvk4aoVsA", "alias": "marcos-pizza-missouri-city", "name": "Marco's Pizza", "image_url": "https://s3-media2.fl.yelpcdn.com/bphoto/bd-8DgmPWIG_ugcCk0Wpiw/o.jpg", "is_closed": false, "url": "https://www.yelp.com/biz/marcos-pizza-missouri-city?adjust_creative=rZiFgfUX1eajVOVygdFykg&utm_campaign=yelp_api_v3&utm_medium=api_v3_business_search&utm_source=rZiFgfUX1eajVOVygdFykg", "review_count": 47, "categories": [{"alias": "pizza", "title": "Pizza"}, {"alias": "salad", "title": "Salad"}, {"alias": "italian", "title": "Italian"}], "rating": 3.0, "coordinates": {"latitude": 29.56445, "longitude": -95.56267374621504}, "transactions": ["delivery", "pickup"], "price": "$$", "location": {"address1": "6245 Hwy 6", "address2": "Ste 300", "address3": "", "city": "Missouri City", "zip_code": "77459", "country": "US", "state": "TX", "display_address": ["6245 Hwy 6", "Ste 300", "Missouri City, TX 77459"]}, "phone": "+18325396900", "display_phone": "(832) 539-6900", "distance": 9464.823273283078}, {"id": "ZNXD4tyDGn5H2xFkuXOsww", "alias": "whataburger-pearland-4", "name": "Whataburger", "image_url": "https://s3-media1.fl.yelpcdn.com/bphoto/4cOVSScZpz4qdpyUos3N9A/o.jpg", "is_closed": false, "url": "https://www.yelp.com/biz/whataburger-pearland-4?adjust_creative=rZiFgfUX1eajVOVygdFykg&utm_campaign=yelp_api_v3&utm_medium=api_v3_business_search&utm_source=rZiFgfUX1eajVOVygdFykg", "review_count": 150, "categories": [{"alias": "hotdogs", "title": "Fast Food"}, {"alias": "burgers", "title": "Burgers"}], "rating": 2.0, "coordinates": {"latitude": 29.581794716297413, "longitude": -95.38870670639292}, "transactions": ["delivery"], "price": "$", "location": {"address1": "11025 Shadow Creek Pkwy", "address2": "", "address3": "", "city": "Pearland", "zip_code": "77584", "country": "US", "state": "TX", "display_address": ["11025 Shadow Creek Pkwy", "Pearland, TX 77584"]}, "phone": "+17134367526", "display_phone": "(713) 436-7526", "distance": 9256.749323029653}, {"id": "Np1YYkluNaTpvCOSe6edvg", "alias": "penas-donut-heaven-and-grill-pearland", "name": "Pena's Donut Heaven & Grill", "image_url": "https://s3-media1.fl.yelpcdn.com/bphoto/HxCiz6IGuJ0JPpfxCQLXYw/o.jpg", "is_closed": false, "url": "https://www.yelp.com/biz/penas-donut-heaven-and-grill-pearland?adjust_creative=rZiFgfUX1eajVOVygdFykg&utm_campaign=yelp_api_v3&utm_medium=api_v3_business_search&utm_source=rZiFgfUX1eajVOVygdFykg", "review_count": 574, "categories": [{"alias": "tradamerican", "title": "American (Traditional)"}, {"alias": "donuts", "title": "Donuts"}, {"alias": "breakfast_brunch", "title": "Breakfast & Brunch"}], "rating": 4.0, "coordinates": {"latitude": 29.58011, "longitude": -95.39582}, "transactions": ["delivery", "pickup"], "price": "$", "location": {"address1": "11601 Shadow Creek Pkwy", "address2": "", "address3": "", "city": "Pearland", "zip_code": "77584", "country": "US", "state": "TX", "display_address": ["11601 Shadow Creek Pkwy", "Pearland, TX 77584"]}, "phone": "+17133403231", "display_phone": "(713) 340-3231", "distance": 8580.620232476695}, {"id": "UAxQoum4464KhLLgfbarxA", "alias": "pizza-parlor-pearland", "name": "Pizza Parlor", "image_url": "https://s3-media3.fl.yelpcdn.com/bphoto/dQcLzJHy9ubEUBNxKmUH4g/o.jpg", "is_closed": false, "url": "https://www.yelp.com/biz/pizza-parlor-pearland?adjust_creative=rZiFgfUX1eajVOVygdFykg&utm_campaign=yelp_api_v3&utm_medium=api_v3_business_search&utm_source=rZiFgfUX1eajVOVygdFykg", "review_count": 111, "categories": [{"alias": "pizza", "title": "Pizza"}, {"alias": "chicken_wings", "title": "Chicken Wings"}, {"alias": "sandwiches", "title": "Sandwiches"}], "rating": 3.5, "coordinates": {"latitude": 29.55672045824396, "longitude": -95.39237298291388}, "transactions": ["delivery", "pickup"], "price": "$", "location": {"address1": "2810 Business Center Dr", "address2": "Ste 128", "address3": "", "city": "Pearland", "zip_code": "77584", "country": "US", "state": "TX", "display_address": ["2810 Business Center Dr", "Ste 128", "Pearland, TX 77584"]}, "phone": "+17133403025", "display_phone": "(713) 340-3025", "distance": 7787.139249066606}, {"id": "kWBPgei4AjJawkT21zd2mA", "alias": "pizza-hut-pearland", "name": "Pizza Hut", "image_url": "https://s3-media3.fl.yelpcdn.com/bphoto/oWeRyTB_fubDCvZOPRlJlw/o.jpg", "is_closed": false, "url": "https://www.yelp.com/biz/pizza-hut-pearland?adjust_creative=rZiFgfUX1eajVOVygdFykg&utm_campaign=yelp_api_v3&utm_medium=api_v3_business_search&utm_source=rZiFgfUX1eajVOVygdFykg", "review_count": 32, "categories": [{"alias": "pizza", "title": "Pizza"}, {"alias": "chicken_wings", "title": "Chicken Wings"}, {"alias": "hotdogs", "title": "Fast Food"}], "rating": 2.0, "coordinates": {"latitude": 29.555338, "longitude": -95.383233}, "transactions": ["delivery"], "price": "$", "location": {"address1": "10504 Broadway St", "address2": "Ste 100", "address3": "", "city": "Pearland", "zip_code": "77584", "country": "US", "state": "TX", "display_address": ["10504 Broadway St", "Ste 100", "Pearland, TX 77584"]}, "phone": "+17134361014", "display_phone": "(713) 436-1014", "distance": 8602.85275435028}, {"id": "8Bi7QP4P3meoehwKj3duig", "alias": "burger-king-manvel-2", "name": "Burger King", "image_url": "https://s3-media2.fl.yelpcdn.com/bphoto/YNpklMmgL5HGlnjvgqntlg/o.jpg", "is_closed": false, "url": "https://www.yelp.com/biz/burger-king-manvel-2?adjust_creative=rZiFgfUX1eajVOVygdFykg&utm_campaign=yelp_api_v3&utm_medium=api_v3_business_search&utm_source=rZiFgfUX1eajVOVygdFykg", "review_count": 7, "categories": [{"alias": "burgers", "title": "Burgers"}, {"alias": "hotdogs", "title": "Fast Food"}], "rating": 2.0, "coordinates": {"latitude": 29.482504, "longitude": -95.398252}, "transactions": ["delivery"], "price": "$", "location": {"address1": "17657 Hwy 6 S", "address2": "", "address3": "", "city": "Manvel", "zip_code": "77578", "country": "US", "state": "TX", "display_address": ["17657 Hwy 6 S", "Manvel, TX 77578"]}, "phone": "+12816921868", "display_phone": "(281) 692-1868", "distance": 9251.588434816136}, {"id": "0FkSa_1xZH4m03E8v8LMeQ", "alias": "mcdonalds-houston-59", "name": "McDonald's", "image_url": "https://s3-media4.fl.yelpcdn.com/bphoto/zu3IL2z9lKD0KNemF4bRWw/o.jpg", "is_closed": false, "url": "https://www.yelp.com/biz/mcdonalds-houston-59?adjust_creative=rZiFgfUX1eajVOVygdFykg&utm_campaign=yelp_api_v3&utm_medium=api_v3_business_search&utm_source=rZiFgfUX1eajVOVygdFykg", "review_count": 38, "categories": [{"alias": "hotdogs", "title": "Fast Food"}, {"alias": "burgers", "title": "Burgers"}, {"alias": "coffee", "title": "Coffee & Tea"}], "rating": 2.0, "coordinates": {"latitude": 29.6255945, "longitude": -95.4655779}, "transactions": ["delivery"], "price": "$", "location": {"address1": "13882 S Post Oak", "address2": null, "address3": null, "city": "Houston", "zip_code": "77045", "country": "US", "state": "TX", "display_address": ["13882 S Post Oak", "Houston, TX 77045"]}, "phone": "+17137230972", "display_phone": "(713) 723-0972", "distance": 9792.087932167606}, {"id": "dnohkSIXdjlbrOTnGQYW6A", "alias": "pizza-hut-pearland-4", "name": "Pizza Hut", "image_url": "https://s3-media2.fl.yelpcdn.com/bphoto/sZTCf3Wh7GUoH-nEblCuvw/o.jpg", "is_closed": false, "url": "https://www.yelp.com/biz/pizza-hut-pearland-4?adjust_creative=rZiFgfUX1eajVOVygdFykg&utm_campaign=yelp_api_v3&utm_medium=api_v3_business_search&utm_source=rZiFgfUX1eajVOVygdFykg", "review_count": 51, "categories": [{"alias": "pizza", "title": "Pizza"}, {"alias": "chicken_wings", "title": "Chicken Wings"}, {"alias": "hotdogs", "title": "Fast Food"}], "rating": 1.5, "coordinates": {"latitude": 29.58026577889611, "longitude": -95.3958775}, "transactions": ["delivery"], "price": "$", "location": {"address1": "11601 Shadow Creek Pkwy", "address2": "Ste 119", "address3": null, "city": "Pearland", "zip_code": "77584", "country": "US", "state": "TX", "display_address": ["11601 Shadow Creek Pkwy", "Ste 119", "Pearland, TX 77584"]}, "phone": "+17134362217", "display_phone": "(713) 436-2217", "distance": 8581.668860860362}, {"id": "1h7k5qt9-g1XfpodPvzzag", "alias": "kfc-pearland-6", "name": "KFC", "image_url": "https://s3-media4.fl.yelpcdn.com/bphoto/HlfBLwYy_LRGONZ5GxAKoA/o.jpg", "is_closed": false, "url": "https://www.yelp.com/biz/kfc-pearland-6?adjust_creative=rZiFgfUX1eajVOVygdFykg&utm_campaign=yelp_api_v3&utm_medium=api_v3_business_search&utm_source=rZiFgfUX1eajVOVygdFykg", "review_count": 50, "categories": [{"alias": "hotdogs", "title": "Fast Food"}, {"alias": "chicken_wings", "title": "Chicken Wings"}, {"alias": "chickenshop", "title": "Chicken Shop"}], "rating": 1.5, "coordinates": {"latitude": 29.5556, "longitude": -95.37636}, "transactions": ["delivery", "pickup"], "price": "$", "location": {"address1": "10034 Broadway St", "address2": "", "address3": "", "city": "Pearland", "zip_code": "77584", "country": "US", "state": "TX", "display_address": ["10034 Broadway St", "Pearland, TX 77584"]}, "phone": "+17134365311", "display_phone": "(713) 436-5311", "distance": 9260.085289939469}, {"id": "injqNtKiyAXGYTrsEpUz1g", "alias": "mcdonalds-houston-129", "name": "McDonald's", "image_url": "https://s3-media2.fl.yelpcdn.com/bphoto/UQU_DErermkG8gxsQrc0fQ/o.jpg", "is_closed": false, "url": "https://www.yelp.com/biz/mcdonalds-houston-129?adjust_creative=rZiFgfUX1eajVOVygdFykg&utm_campaign=yelp_api_v3&utm_medium=api_v3_business_search&utm_source=rZiFgfUX1eajVOVygdFykg", "review_count": 27, "categories": [{"alias": "hotdogs", "title": "Fast Food"}, {"alias": "burgers", "title": "Burgers"}, {"alias": "coffee", "title": "Coffee & Tea"}], "rating": 2.0, "coordinates": {"latitude": 29.613257, "longitude": -95.42024}, "transactions": ["delivery"], "price": "$", "location": {"address1": "13402 Almeda Rd", "address2": "", "address3": "", "city": "Houston", "zip_code": "77053", "country": "US", "state": "TX", "display_address": ["13402 Almeda Rd", "Houston, TX 77053"]}, "phone": "+17134342574", "display_phone": "(713) 434-2574", "distance": 9682.108261706218}, {"id": "Etbkt0f4asqmnt_WnAY7fA", "alias": "subway-houston-494", "name": "Subway", "image_url": "https://s3-media3.fl.yelpcdn.com/bphoto/d9x8W0SLB17WlL4gvRSLXQ/o.jpg", "is_closed": false, "url": "https://www.yelp.com/biz/subway-houston-494?adjust_creative=rZiFgfUX1eajVOVygdFykg&utm_campaign=yelp_api_v3&utm_medium=api_v3_business_search&utm_source=rZiFgfUX1eajVOVygdFykg", "review_count": 7, "categories": [{"alias": "sandwiches", "title": "Sandwiches"}, {"alias": "hotdogs", "title": "Fast Food"}], "rating": 1.0, "coordinates": {"latitude": 29.6150473227193, "longitude": -95.4949728162531}, "transactions": ["delivery", "pickup"], "price": "$", "location": {"address1": "7414 S Sam Houston Pkwy", "address2": "Ste 108", "address3": "", "city": "Houston", "zip_code": "77085", "country": "US", "state": "TX", "display_address": ["7414 S Sam Houston Pkwy", "Ste 108", "Houston, TX 77085"]}, "phone": "+17137297444", "display_phone": "(713) 729-7444", "distance": 8947.730720728592}, {"id": "HD0yiLKyUfXsK8eMZ7z4Xg", "alias": "wingstreet-missouri-city-2", "name": "Wingstreet", "image_url": "", "is_closed": false, "url": "https://www.yelp.com/biz/wingstreet-missouri-city-2?adjust_creative=rZiFgfUX1eajVOVygdFykg&utm_campaign=yelp_api_v3&utm_medium=api_v3_business_search&utm_source=rZiFgfUX1eajVOVygdFykg", "review_count": 2, "categories": [{"alias": "pizza", "title": "Pizza"}], "rating": 1.0, "coordinates": {"latitude": 29.594666, "longitude": -95.527199}, "transactions": [], "location": {"address1": "2292 Texas Pkwy", "address2": "", "address3": "", "city": "Missouri City", "zip_code": "77489", "country": "US", "state": "TX", "display_address": ["2292 Texas Pkwy", "Missouri City, TX 77489"]}, "phone": "+12812616611", "display_phone": "(281) 261-6611", "distance": 8435.633766021983}, {"id": "Hu8VgXfiaWw8ao-qKaevFQ", "alias": "burger-king-houston-92", "name": "Burger King", "image_url": "https://s3-media1.fl.yelpcdn.com/bphoto/IBMk25ydmHQxThjBtZ_UOw/o.jpg", "is_closed": false, "url": "https://www.yelp.com/biz/burger-king-houston-92?adjust_creative=rZiFgfUX1eajVOVygdFykg&utm_campaign=yelp_api_v3&utm_medium=api_v3_business_search&utm_source=rZiFgfUX1eajVOVygdFykg", "review_count": 11, "categories": [{"alias": "burgers", "title": "Burgers"}, {"alias": "hotdogs", "title": "Fast Food"}], "rating": 1.5, "coordinates": {"latitude": 29.68965, "longitude": -95.55637}, "transactions": ["delivery"], "price": "$", "location": {"address1": "8181 SW Sam Houston Pkwy", "address2": "", "address3": "", "city": "Houston", "zip_code": "77072", "country": "US", "state": "TX", "display_address": ["8181 SW Sam Houston Pkwy", "Houston, TX 77072"]}, "phone": "+17137792476", "display_phone": "(713) 779-2476", "distance": 9819.842473232182}, {"id": "VMEAGRQIK82MJ_jUwDzS9g", "alias": "mcdonalds-houston-94", "name": "McDonald's", "image_url": "https://s3-media2.fl.yelpcdn.com/bphoto/HVebbVL_uh7y26i5MnwpGA/o.jpg", "is_closed": false, "url": "https://www.yelp.com/biz/mcdonalds-houston-94?adjust_creative=rZiFgfUX1eajVOVygdFykg&utm_campaign=yelp_api_v3&utm_medium=api_v3_business_search&utm_source=rZiFgfUX1eajVOVygdFykg", "review_count": 39, "categories": [{"alias": "hotdogs", "title": "Fast Food"}, {"alias": "burgers", "title": "Burgers"}, {"alias": "coffee", "title": "Coffee & Tea"}], "rating": 1.5, "coordinates": {"latitude": 29.6148367819123, "longitude": -95.3856289386749}, "transactions": ["delivery"], "price": "$", "location": {"address1": "2503 Almeda-genoa Rd", "address2": "", "address3": "", "city": "Houston", "zip_code": "77047", "country": "US", "state": "TX", "display_address": ["2503 Almeda-genoa Rd", "Houston, TX 77047"]}, "phone": "+17134131570", "display_phone": "(713) 413-1570", "distance": 11833.317917995451}, {"id": "QrR6Z08Zftfmri_qrj1jWA", "alias": "mcdonalds-stafford-13", "name": "McDonald's", "image_url": "https://s3-media2.fl.yelpcdn.com/bphoto/TI7IvUiQTqh__K094AhnSw/o.jpg", "is_closed": false, "url": "https://www.yelp.com/biz/mcdonalds-stafford-13?adjust_creative=rZiFgfUX1eajVOVygdFykg&utm_campaign=yelp_api_v3&utm_medium=api_v3_business_search&utm_source=rZiFgfUX1eajVOVygdFykg", "review_count": 102, "categories": [{"alias": "burgers", "title": "Burgers"}, {"alias": "hotdogs", "title": "Fast Food"}, {"alias": "coffee", "title": "Coffee & Tea"}], "rating": 1.5, "coordinates": {"latitude": 29.6206943257684, "longitude": -95.5696893220193}, "transactions": ["delivery"], "price": "$", "location": {"address1": "3643 Main St", "address2": "", "address3": null, "city": "Stafford", "zip_code": "77477", "country": "US", "state": "TX", "display_address": ["3643 Main St", "Stafford, TX 77477"]}, "phone": "+12814990395", "display_phone": "(281) 499-0395", "distance": 13365.130360849018}, {"id": "rPZ1hofbqiKiJv7Avy9OZg", "alias": "churchs-chicken-missouri-city-3", "name": "Church's Chicken", "image_url": "https://s3-media2.fl.yelpcdn.com/bphoto/-P0NliGXZE1Qkg6-TeyByQ/o.jpg", "is_closed": false, "url": "https://www.yelp.com/biz/churchs-chicken-missouri-city-3?adjust_creative=rZiFgfUX1eajVOVygdFykg&utm_campaign=yelp_api_v3&utm_medium=api_v3_business_search&utm_source=rZiFgfUX1eajVOVygdFykg", "review_count": 13, "categories": [{"alias": "hotdogs", "title": "Fast Food"}, {"alias": "chicken_wings", "title": "Chicken Wings"}], "rating": 2.0, "coordinates": {"latitude": 29.59827, "longitude": -95.526504}, "transactions": ["delivery", "pickup"], "location": {"address1": "1949 FM 2234", "address2": "", "address3": "", "city": "Missouri City", "zip_code": "77489", "country": "US", "state": "TX", "display_address": ["1949 FM 2234", "Missouri City, TX 77489"]}, "phone": "+12814994694", "display_phone": "(281) 499-4694", "distance": 8692.121485327098}, {"id": "D7bjSkrIekLMAv-PB83bGQ", "alias": "chuck-e-cheese-pearland-2", "name": "Chuck E. Cheese", "image_url": "https://s3-media2.fl.yelpcdn.com/bphoto/P_Evbf7N2mowb08t8dGNSA/o.jpg", "is_closed": false, "url": "https://www.yelp.com/biz/chuck-e-cheese-pearland-2?adjust_creative=rZiFgfUX1eajVOVygdFykg&utm_campaign=yelp_api_v3&utm_medium=api_v3_business_search&utm_source=rZiFgfUX1eajVOVygdFykg", "review_count": 52, "categories": [{"alias": "pizza", "title": "Pizza"}, {"alias": "arcades", "title": "Arcades"}, {"alias": "kids_activities", "title": "Kids Activities"}], "rating": 3.0, "coordinates": {"latitude": 29.551846, "longitude": -95.385833}, "transactions": ["pickup", "delivery"], "price": "$", "location": {"address1": "3141 Silverlake Village Dr", "address2": "", "address3": "", "city": "Pearland", "zip_code": "77584", "country": "US", "state": "TX", "display_address": ["3141 Silverlake Village Dr", "Pearland, TX 77584"]}, "phone": "+17133401530", "display_phone": "(713) 340-1530", "distance": 8277.19815890418}, {"id": "1jYXS5QuWftyafGjDV_zvQ", "alias": "pepperonis-riverstone-missouri-city", "name": "Pepperoni's - Riverstone", "image_url": "https://s3-media3.fl.yelpcdn.com/bphoto/id6Wzdr-wMGUPwLhzl67hg/o.jpg", "is_closed": false, "url": "https://www.yelp.com/biz/pepperonis-riverstone-missouri-city?adjust_creative=rZiFgfUX1eajVOVygdFykg&utm_campaign=yelp_api_v3&utm_medium=api_v3_business_search&utm_source=rZiFgfUX1eajVOVygdFykg", "review_count": 61, "categories": [{"alias": "pizza", "title": "Pizza"}], "rating": 3.5, "coordinates": {"latitude": 29.5701773092884, "longitude": -95.5687256755524}, "transactions": ["pickup", "delivery"], "price": "$", "location": {"address1": "5932 Hwy 6 S", "address2": "", "address3": "", "city": "Missouri City", "zip_code": "77459", "country": "US", "state": "TX", "display_address": ["5932 Hwy 6 S", "Missouri City, TX 77459"]}, "phone": "+12812616665", "display_phone": "(281) 261-6665", "distance": 10229.54087032738}, {"id": "vy9K3jpnJj7r6W0uGlfIMw", "alias": "chick-fil-a-pearland", "name": "Chick-fil-A", "image_url": "https://s3-media1.fl.yelpcdn.com/bphoto/VKnLIo8EhSPJnCAMZsW3qQ/o.jpg", "is_closed": false, "url": "https://www.yelp.com/biz/chick-fil-a-pearland?adjust_creative=rZiFgfUX1eajVOVygdFykg&utm_campaign=yelp_api_v3&utm_medium=api_v3_business_search&utm_source=rZiFgfUX1eajVOVygdFykg", "review_count": 102, "categories": [{"alias": "hotdogs", "title": "Fast Food"}, {"alias": "chickenshop", "title": "Chicken Shop"}, {"alias": "salad", "title": "Salad"}], "rating": 3.5, "coordinates": {"latitude": 29.55651499127373, "longitude": -95.377178}, "transactions": ["delivery"], "price": "$", "location": {"address1": "10105 Broadway St", "address2": "", "address3": "", "city": "Pearland", "zip_code": "77584", "country": "US", "state": "TX", "display_address": ["10105 Broadway St", "Pearland, TX 77584"]}, "phone": "+17134366700", "display_phone": "(713) 436-6700", "distance": 9204.722405248587}, {"id": "9OKCjKASpvOGdJWFAH5AGg", "alias": "burger-king-rosenber", "name": "Burger King", "image_url": "https://s3-media3.fl.yelpcdn.com/bphoto/C2Nc6N_av1wmfyb1Ycli-w/o.jpg", "is_closed": false, "url": "https://www.yelp.com/biz/burger-king-rosenber?adjust_creative=rZiFgfUX1eajVOVygdFykg&utm_campaign=yelp_api_v3&utm_medium=api_v3_business_search&utm_source=rZiFgfUX1eajVOVygdFykg", "review_count": 7, "categories": [{"alias": "hotdogs", "title": "Fast Food"}, {"alias": "burgers", "title": "Burgers"}], "rating": 2.0, "coordinates": {"latitude": 29.60120583838177, "longitude": -95.56502363558198}, "transactions": ["delivery"], "price": "$", "location": {"address1": "23718 Commercial Dr", "address2": "", "address3": "", "city": "Rosenber", "zip_code": "77459", "country": "US", "state": "TX", "display_address": ["23718 Commercial Dr", "Rosenber, TX 77459"]}, "phone": "+12818453230", "display_phone": "(281) 845-3230", "distance": 11609.783057573597}, {"id": "td4SMgd8Py86Hob2KoW2iw", "alias": "chick-fil-a-missouri-city", "name": "Chick-fil-A", "image_url": "https://s3-media3.fl.yelpcdn.com/bphoto/XUjLusT_b8ek4tYswdNjaQ/o.jpg", "is_closed": false, "url": "https://www.yelp.com/biz/chick-fil-a-missouri-city?adjust_creative=rZiFgfUX1eajVOVygdFykg&utm_campaign=yelp_api_v3&utm_medium=api_v3_business_search&utm_source=rZiFgfUX1eajVOVygdFykg", "review_count": 130, "categories": [{"alias": "hotdogs", "title": "Fast Food"}, {"alias": "chickenshop", "title": "Chicken Shop"}, {"alias": "salad", "title": "Salad"}], "rating": 3.0, "coordinates": {"latitude": 29.5646162, "longitude": -95.5644528}, "transactions": [], "price": "$", "location": {"address1": "6124 Highway 6", "address2": "", "address3": "", "city": "Missouri City", "zip_code": "77459", "country": "US", "state": "TX", "display_address": ["6124 Highway 6", "Missouri City, TX 77459"]}, "phone": "+12812617100", "display_phone": "(281) 261-7100", "distance": 9634.02225247963}, {"id": "c53VE6SbHOPm0S3pQK-Hkg", "alias": "wendys-stafford-2", "name": "Wendy's", "image_url": "https://s3-media1.fl.yelpcdn.com/bphoto/TLiZjPyiVYN6vmtodYvMoQ/o.jpg", "is_closed": false, "url": "https://www.yelp.com/biz/wendys-stafford-2?adjust_creative=rZiFgfUX1eajVOVygdFykg&utm_campaign=yelp_api_v3&utm_medium=api_v3_business_search&utm_source=rZiFgfUX1eajVOVygdFykg", "review_count": 24, "categories": [{"alias": "burgers", "title": "Burgers"}, {"alias": "hotdogs", "title": "Fast Food"}], "rating": 2.5, "coordinates": {"latitude": 29.625095, "longitude": -95.56429}, "transactions": ["delivery"], "price": "$", "location": {"address1": "13693 Murphy Road", "address2": "", "address3": "", "city": "Stafford", "zip_code": "77477", "country": "US", "state": "TX", "display_address": ["13693 Murphy Road", "Stafford, TX 77477"]}, "phone": "+18325094174", "display_phone": "(832) 509-4174", "distance": 13343.65517023048}, {"id": "jvkue_GT9QfDr-_P-PZO0g", "alias": "wendys-missouri-city-2", "name": "Wendy's", "image_url": "https://s3-media2.fl.yelpcdn.com/bphoto/YACs7bUfa3h7RUAwfDjXOw/o.jpg", "is_closed": false, "url": "https://www.yelp.com/biz/wendys-missouri-city-2?adjust_creative=rZiFgfUX1eajVOVygdFykg&utm_campaign=yelp_api_v3&utm_medium=api_v3_business_search&utm_source=rZiFgfUX1eajVOVygdFykg", "review_count": 34, "categories": [{"alias": "burgers", "title": "Burgers"}, {"alias": "hotdogs", "title": "Fast Food"}], "rating": 1.5, "coordinates": {"latitude": 29.572414, "longitude": -95.569912}, "transactions": ["delivery"], "price": "$", "location": {"address1": "5515 Highway 6", "address2": "", "address3": "", "city": "Missouri City", "zip_code": "77459", "country": "US", "state": "TX", "display_address": ["5515 Highway 6", "Missouri City, TX 77459"]}, "phone": "+17134051442", "display_phone": "(713) 405-1442", "distance": 10427.030214633596}]