[{"id": "mlOelmCRqLOkWlLcAIZ-BA", "alias": "swamp-chicken-missouri-city", "name": "Swamp Chicken", "image_url": "https://s3-media2.fl.yelpcdn.com/bphoto/iV2JhjD5mbFjNWBg_QPtew/o.jpg", "is_closed": false, "url": "https://www.yelp.com/biz/swamp-chicken-missouri-city?adjust_creative=rZiFgfUX1eajVOVygdFykg&utm_campaign=yelp_api_v3&utm_medium=api_v3_business_search&utm_source=rZiFgfUX1eajVOVygdFykg", "review_count": 23, "categories": [{"alias": "cajun", "title": "Cajun/Creole"}], "rating": 4.0, "coordinates": {"latitude": 29.545382778092428, "longitude": -95.54706904949656}, "transactions": [], "location": {"address1": "8035 Hwy 6", "address2": "", "address3": null, "city": "Missouri City", "zip_code": "77459", "country": "US", "state": "TX", "display_address": ["8035 Hwy 6", "Missouri City, TX 77459"]}, "phone": "+12819698945", "display_phone": "(281) 969-8945", "distance": 7523.026816387753}, {"id": "zcc818cmdAJ6JDiS8ODXAg", "alias": "big-city-wings-pearland", "name": "Big City Wings", "image_url": "https://s3-media2.fl.yelpcdn.com/bphoto/LN4X0h0-lCw3_CvrEIhA0A/o.jpg", "is_closed": false, "url": "https://www.yelp.com/biz/big-city-wings-pearland?adjust_creative=rZiFgfUX1eajVOVygdFykg&utm_campaign=yelp_api_v3&utm_medium=api_v3_business_search&utm_source=rZiFgfUX1eajVOVygdFykg", "review_count": 286, "categories": [{"alias": "chicken_wings", "title": "Chicken Wings"}, {"alias": "burgers", "title": "Burgers"}, {"alias": "sportsbars", "title": "Sports Bars"}], "rating": 3.5, "coordinates": {"latitude": 29.557198, "longitude": -95.371067}, "transactions": ["pickup", "delivery"], "price": "$$", "location": {"address1": "9721 Broadway St", "address2": null, "address3": "", "city": "Pearland", "zip_code": "77584", "country": "US", "state": "TX", "display_address": ["9721 Broadway St", "Pearland, TX 77584"]}, "phone": "+13467545980", "display_phone": "(346) 754-5980", "distance": 9797.744646664849}, {"id": "kBPaHWjREZNgr35J5l3_jg", "alias": "wingstop-arcola", "name": "Wingstop", "image_url": "https://s3-media1.fl.yelpcdn.com/bphoto/2X_qSYSOnxN_Hs4EIeO62Q/o.jpg", "is_closed": false, "url": "https://www.yelp.com/biz/wingstop-arcola?adjust_creative=rZiFgfUX1eajVOVygdFykg&utm_campaign=yelp_api_v3&utm_medium=api_v3_business_search&utm_source=rZiFgfUX1eajVOVygdFykg", "review_count": 38, "categories": [{"alias": "chicken_wings", "title": "Chicken Wings"}], "rating": 2.0, "coordinates": {"latitude": 29.50753417185821, "longitude": -95.45989931121046}, "transactions": [], "location": {"address1": "5243 Fm 521 Rd", "address2": "Ste O", "address3": null, "city": "Arcola", "zip_code": "77583", "country": "US", "state": "TX", "display_address": ["5243 Fm 521 Rd", "Ste O", "Arcola, TX 77583"]}, "phone": "+12814319464", "display_phone": "(281) 431-9464", "distance": 3479.1814310928576}, {"id": "b4a8eGt5rBr8ubKGXO8wYA", "alias": "take-the-wheel-mobile-fresno", "name": "Take The Wheel Mobile", "image_url": "https://s3-media2.fl.yelpcdn.com/bphoto/WWd4yDM0yDiJ94S6yVKRwQ/o.jpg", "is_closed": false, "url": "https://www.yelp.com/biz/take-the-wheel-mobile-fresno?adjust_creative=rZiFgfUX1eajVOVygdFykg&utm_campaign=yelp_api_v3&utm_medium=api_v3_business_search&utm_source=rZiFgfUX1eajVOVygdFykg", "review_count": 59, "categories": [{"alias": "foodtrucks", "title": "Food Trucks"}, {"alias": "tradamerican", "title": "American (Traditional)"}], "rating": 4.5, "coordinates": {"latitude": 29.523673, "longitude": -95.45414}, "transactions": ["pickup", "delivery"], "price": "$", "location": {"address1": "4233 Fm 521 Rd", "address2": null, "address3": "", "city": "Fresno", "zip_code": "77545", "country": "US", "state": "TX", "display_address": ["4233 Fm 521 Rd", "Fresno, TX 77545"]}, "phone": "+18323342181", "display_phone": "(832) 334-2181", "distance": 2171.0943422232363}, {"id": "tsLFO0SuZPjqCtGcDNnWig", "alias": "bar-kada-missouri-city", "name": "Bar Kada", "image_url": "https://s3-media3.fl.yelpcdn.com/bphoto/WEs1ij9Wc0B-ONuZmy5gVA/o.jpg", "is_closed": false, "url": "https://www.yelp.com/biz/bar-kada-missouri-city?adjust_creative=rZiFgfUX1eajVOVygdFykg&utm_campaign=yelp_api_v3&utm_medium=api_v3_business_search&utm_source=rZiFgfUX1eajVOVygdFykg", "review_count": 49, "categories": [{"alias": "sportsbars", "title": "Sports Bars"}, {"alias": "asianfusion", "title": "Asian Fusion"}], "rating": 3.5, "coordinates": {"latitude": 29.537163, "longitude": -95.533925}, "transactions": [], "location": {"address1": "9009 Sienna Crossing Dr", "address2": "", "address3": null, "city": "Missouri City", "zip_code": "77459", "country": "US", "state": "TX", "display_address": ["9009 Sienna Crossing Dr", "Missouri City, TX 77459"]}, "phone": "+17132275232", "display_phone": "(713) 227-5232", "distance": 6197.980513285042}, {"id": "s7urMWCZg99G2AkYbfCZZw", "alias": "wing-station-missouri-city-3", "name": "Wing Station", "image_url": "https://s3-media2.fl.yelpcdn.com/bphoto/sy9AFxKaRwCLg6QcCJKzTg/o.jpg", "is_closed": false, "url": "https://www.yelp.com/biz/wing-station-missouri-city-3?adjust_creative=rZiFgfUX1eajVOVygdFykg&utm_campaign=yelp_api_v3&utm_medium=api_v3_business_search&utm_source=rZiFgfUX1eajVOVygdFykg", "review_count": 28, "categories": [{"alias": "chicken_wings", "title": "Chicken Wings"}], "rating": 3.0, "coordinates": {"latitude": 29.513184, "longitude": -95.526678}, "transactions": ["pickup", "delivery"], "location": {"address1": "4340 Sienna Pkwy", "address2": "Ste 104", "address3": null, "city": "Missouri City", "zip_code": "77459", "country": "US", "state": "TX", "display_address": ["4340 Sienna Pkwy", "Ste 104", "Missouri City, TX 77459"]}, "phone": "+13468167213", "display_phone": "(346) 816-7213", "distance": 6135.3537205171015}, {"id": "waguhjeCnyyIv_5PkBDcIQ", "alias": "daves-hot-chicken-missouri-city", "name": "Dave's Hot Chicken", "image_url": "https://s3-media1.fl.yelpcdn.com/bphoto/LE-VoOFfCOZzzJPyuJCAmQ/o.jpg", "is_closed": false, "url": "https://www.yelp.com/biz/daves-hot-chicken-missouri-city?adjust_creative=rZiFgfUX1eajVOVygdFykg&utm_campaign=yelp_api_v3&utm_medium=api_v3_business_search&utm_source=rZiFgfUX1eajVOVygdFykg", "review_count": 149, "categories": [{"alias": "chickenshop", "title": "Chicken Shop"}, {"alias": "halal", "title": "Halal"}, {"alias": "sandwiches", "title": "Sandwiches"}], "rating": 4.0, "coordinates": {"latitude": 29.56263, "longitude": -95.562596}, "transactions": ["pickup", "delivery"], "price": "$$", "location": {"address1": "6324 Hwy\u00a06 S", "address2": null, "address3": null, "city": "Missouri City", "zip_code": "77459", "country": "US", "state": "TX", "display_address": ["6324 Hwy\u00a06 S", "Missouri City, TX 77459"]}, "phone": "+18329874799", "display_phone": "(832) 987-4799", "distance": 9396.704768237063}, {"id": "HjHjZnRqXYE5_jRwV4pPrQ", "alias": "bonchon-pearland-6", "name": "Bonchon", "image_url": "https://s3-media4.fl.yelpcdn.com/bphoto/_JgCWcTl3W6nBHoxGIqwzg/o.jpg", "is_closed": false, "url": "https://www.yelp.com/biz/bonchon-pearland-6?adjust_creative=rZiFgfUX1eajVOVygdFykg&utm_campaign=yelp_api_v3&utm_medium=api_v3_business_search&utm_source=rZiFgfUX1eajVOVygdFykg", "review_count": 303, "categories": [{"alias": "chicken_wings", "title": "Chicken Wings"}, {"alias": "korean", "title": "Korean"}, {"alias": "asianfusion", "title": "Asian Fusion"}], "rating": 3.5, "coordinates": {"latitude": 29.55288834, "longitude": -95.39432629}, "transactions": ["pickup", "delivery"], "price": "$$", "location": {"address1": "11200 Broadway St", "address2": "Ste 360", "address3": "", "city": "Pearland", "zip_code": "77584", "country": "US", "state": "TX", "display_address": ["11200 Broadway St", "Ste 360", "Pearland, TX 77584"]}, "phone": "+13464105167", "display_phone": "(346) 410-5167", "distance": 7497.781280277555}, {"id": "xkqqY29BviSEtSZeFzc2cg", "alias": "big-mammas-home-cooking-missouri-city", "name": "Big Mammas Home Cooking", "image_url": "https://s3-media4.fl.yelpcdn.com/bphoto/Cywt_eiALg-21feZtX7D_Q/o.jpg", "is_closed": false, "url": "https://www.yelp.com/biz/big-mammas-home-cooking-missouri-city?adjust_creative=rZiFgfUX1eajVOVygdFykg&utm_campaign=yelp_api_v3&utm_medium=api_v3_business_search&utm_source=rZiFgfUX1eajVOVygdFykg", "review_count": 54, "categories": [{"alias": "soulfood", "title": "Soul Food"}, {"alias": "southern", "title": "Southern"}, {"alias": "bars", "title": "Bars"}], "rating": 3.5, "coordinates": {"latitude": 29.540765589379852, "longitude": -95.53857085561629}, "transactions": ["pickup", "delivery"], "location": {"address1": "8731 Hwy 6", "address2": "Ste 100", "address3": "", "city": "Missouri City", "zip_code": "77459", "country": "US", "state": "TX", "display_address": ["8731 Hwy 6", "Ste 100", "Missouri City, TX 77459"]}, "phone": "+18324402984", "display_phone": "(832) 440-2984", "distance": 6660.500362658872}, {"id": "ZaISh61fxTQE11qv4vvN7w", "alias": "wingstop-missouri-city-2", "name": "Wingstop", "image_url": "https://s3-media4.fl.yelpcdn.com/bphoto/_rLChqIszusullFs6ThEQQ/o.jpg", "is_closed": false, "url": "https://www.yelp.com/biz/wingstop-missouri-city-2?adjust_creative=rZiFgfUX1eajVOVygdFykg&utm_campaign=yelp_api_v3&utm_medium=api_v3_business_search&utm_source=rZiFgfUX1eajVOVygdFykg", "review_count": 58, "categories": [{"alias": "chicken_wings", "title": "Chicken Wings"}], "rating": 2.5, "coordinates": {"latitude": 29.552562426186615, "longitude": -95.55415166972396}, "transactions": [], "price": "$$", "location": {"address1": "7260 Highway 6", "address2": "Ste 500", "address3": "", "city": "Missouri City", "zip_code": "77459", "country": "US", "state": "TX", "display_address": ["7260 Highway 6", "Ste 500", "Missouri City, TX 77459"]}, "phone": "+12812612300", "display_phone": "(281) 261-2300", "distance": 8325.799320671942}, {"id": "xg4P1yA8-VC_yOwSEmPhMg", "alias": "soul-goode-pearland", "name": "Soul Goode", "image_url": "https://s3-media1.fl.yelpcdn.com/bphoto/Fo3iIbO85umNedp0EGOpIw/o.jpg", "is_closed": false, "url": "https://www.yelp.com/biz/soul-goode-pearland?adjust_creative=rZiFgfUX1eajVOVygdFykg&utm_campaign=yelp_api_v3&utm_medium=api_v3_business_search&utm_source=rZiFgfUX1eajVOVygdFykg", "review_count": 54, "categories": [{"alias": "soulfood", "title": "Soul Food"}, {"alias": "desserts", "title": "Desserts"}, {"alias": "foodtrucks", "title": "Food Trucks"}], "rating": 3.5, "coordinates": {"latitude": 29.55455624199748, "longitude": -95.41510624355838}, "transactions": [], "price": "$$", "location": {"address1": "12568 Broadway St", "address2": "Ste 190", "address3": null, "city": "Pearland", "zip_code": "77584", "country": "US", "state": "TX", "display_address": ["12568 Broadway St", "Ste 190", "Pearland, TX 77584"]}, "phone": "+12814165798", "display_phone": "(281) 416-5798", "distance": 5618.016470387354}, {"id": "pTKZxpNrHL7hFyu54PGbig", "alias": "micheauxs-southern-cuisine-missouri-city", "name": "Micheaux's Southern Cuisine", "image_url": "https://s3-media2.fl.yelpcdn.com/bphoto/Yb6V00Gfu0A7ej6p-wDYmQ/o.jpg", "is_closed": false, "url": "https://www.yelp.com/biz/micheauxs-southern-cuisine-missouri-city?adjust_creative=rZiFgfUX1eajVOVygdFykg&utm_campaign=yelp_api_v3&utm_medium=api_v3_business_search&utm_source=rZiFgfUX1eajVOVygdFykg", "review_count": 272, "categories": [{"alias": "soulfood", "title": "Soul Food"}, {"alias": "southern", "title": "Southern"}, {"alias": "desserts", "title": "Desserts"}], "rating": 4.5, "coordinates": {"latitude": 29.556212297847345, "longitude": -95.5568661}, "transactions": ["pickup", "delivery"], "price": "$$", "location": {"address1": "6850 Highway 6", "address2": "ste 200", "address3": "", "city": "Missouri City", "zip_code": "77459", "country": "US", "state": "TX", "display_address": ["6850 Highway 6", "ste 200", "Missouri City, TX 77459"]}, "phone": "+18329871916", "display_phone": "(832) 987-1916", "distance": 8670.870405617421}, {"id": "JAwDoN3nEm7s-HtJAJUm9g", "alias": "brewingz-restaurant-and-bar-pearland-2", "name": "BreWingZ Restaurant and Bar", "image_url": "https://s3-media3.fl.yelpcdn.com/bphoto/W2UOHqo0Sbjsn3FILj7u2g/o.jpg", "is_closed": false, "url": "https://www.yelp.com/biz/brewingz-restaurant-and-bar-pearland-2?adjust_creative=rZiFgfUX1eajVOVygdFykg&utm_campaign=yelp_api_v3&utm_medium=api_v3_business_search&utm_source=rZiFgfUX1eajVOVygdFykg", "review_count": 163, "categories": [{"alias": "chicken_wings", "title": "Chicken Wings"}, {"alias": "sportsbars", "title": "Sports Bars"}, {"alias": "tradamerican", "title": "American (Traditional)"}], "rating": 2.5, "coordinates": {"latitude": 29.543907, "longitude": -95.3892224}, "transactions": ["pickup", "delivery"], "price": "$$", "location": {"address1": "3541 Business Center Dr", "address2": "", "address3": null, "city": "Pearland", "zip_code": "77584", "country": "US", "state": "TX", "display_address": ["3541 Business Center Dr", "Pearland, TX 77584"]}, "phone": "+12817410662", "display_phone": "(281) 741-0662", "distance": 7894.929892820371}, {"id": "-nB7nouFDL-2TWE5mNswwg", "alias": "center-court-pizza-and-brew-pearland", "name": "Center Court Pizza & Brew", "image_url": "https://s3-media3.fl.yelpcdn.com/bphoto/pvRDJfu6tglNqV9FCTzW7w/o.jpg", "is_closed": false, "url": "https://www.yelp.com/biz/center-court-pizza-and-brew-pearland?adjust_creative=rZiFgfUX1eajVOVygdFykg&utm_campaign=yelp_api_v3&utm_medium=api_v3_business_search&utm_source=rZiFgfUX1eajVOVygdFykg", "review_count": 282, "categories": [{"alias": "pizza", "title": "Pizza"}, {"alias": "sportsbars", "title": "Sports Bars"}, {"alias": "sandwiches", "title": "Sandwiches"}], "rating": 4.0, "coordinates": {"latitude": 29.55721, "longitude": -95.370956}, "transactions": ["pickup", "delivery"], "price": "$$", "location": {"address1": "9721 Broadway St", "address2": "", "address3": "", "city": "Pearland", "zip_code": "77584", "country": "US", "state": "TX", "display_address": ["9721 Broadway St", "Pearland, TX 77584"]}, "phone": "+17134363927", "display_phone": "(713) 436-3927", "distance": 9805.719621321243}, {"id": "d8bHUHKcDhM7CwY7IcHfhQ", "alias": "center-court-pizza-and-brew-missouri-city", "name": "Center Court Pizza & Brew", "image_url": "https://s3-media4.fl.yelpcdn.com/bphoto/jNABGfAwFmtcnmxSIECOLg/o.jpg", "is_closed": false, "url": "https://www.yelp.com/biz/center-court-pizza-and-brew-missouri-city?adjust_creative=rZiFgfUX1eajVOVygdFykg&utm_campaign=yelp_api_v3&utm_medium=api_v3_business_search&utm_source=rZiFgfUX1eajVOVygdFykg", "review_count": 153, "categories": [{"alias": "pizza", "title": "Pizza"}], "rating": 3.0, "coordinates": {"latitude": 29.55147, "longitude": -95.55145}, "transactions": ["pickup", "delivery"], "price": "$$", "location": {"address1": "7425 Hwy 6", "address2": "Ste 100", "address3": "", "city": "Missouri City", "zip_code": "77459", "country": "US", "state": "TX", "display_address": ["7425 Hwy 6", "Ste 100", "Missouri City, TX 77459"]}, "phone": "+18329470440", "display_phone": "(832) 947-0440", "distance": 8038.071753244893}, {"id": "dmXVHXeA27YfnXhWG0sr6A", "alias": "whales-wings-and-seafood-houston-2", "name": "Whales Wings and Seafood", "image_url": "https://s3-media2.fl.yelpcdn.com/bphoto/FUAXSqOjuBT7BjySby2WiA/o.jpg", "is_closed": false, "url": "https://www.yelp.com/biz/whales-wings-and-seafood-houston-2?adjust_creative=rZiFgfUX1eajVOVygdFykg&utm_campaign=yelp_api_v3&utm_medium=api_v3_business_search&utm_source=rZiFgfUX1eajVOVygdFykg", "review_count": 2, "categories": [{"alias": "seafood", "title": "Seafood"}], "rating": 4.5, "coordinates": {"latitude": 29.594068130479275, "longitude": -95.46718737299545}, "transactions": [], "location": {"address1": "15917 S Post Oak Rd", "address2": "", "address3": null, "city": "Houston", "zip_code": "77053", "country": "US", "state": "TX", "display_address": ["15917 S Post Oak Rd", "Houston, TX 77053"]}, "phone": "+18323288209", "display_phone": "(832) 328-8209", "distance": 6283.084690619485}, {"id": "l5DhUBiMArWUTl_4hJpkAA", "alias": "bourbon-street-daquries-pearland", "name": "Bourbon Street Daquries", "image_url": "https://s3-media2.fl.yelpcdn.com/bphoto/XNUZ9eProFkFqqQQAsdTRw/o.jpg", "is_closed": false, "url": "https://www.yelp.com/biz/bourbon-street-daquries-pearland?adjust_creative=rZiFgfUX1eajVOVygdFykg&utm_campaign=yelp_api_v3&utm_medium=api_v3_business_search&utm_source=rZiFgfUX1eajVOVygdFykg", "review_count": 5, "categories": [{"alias": "cajun", "title": "Cajun/Creole"}, {"alias": "bars", "title": "Bars"}, {"alias": "seafood", "title": "Seafood"}], "rating": 4.0, "coordinates": {"latitude": 29.54630036522986, "longitude": -95.39024145585392}, "transactions": ["delivery"], "location": {"address1": "3422 Business Ctr Dr", "address2": "Ste 130", "address3": null, "city": "Pearland", "zip_code": "77584", "country": "US", "state": "TX", "display_address": ["3422 Business Ctr Dr", "Ste 130", "Pearland, TX 77584"]}, "phone": "+18322304256", "display_phone": "(832) 230-4256", "distance": 7758.581706195089}, {"id": "OgR6PZhYNI3mUi-4sFA2ag", "alias": "tornado-burger-stafford", "name": "Tornado Burger", "image_url": "https://s3-media2.fl.yelpcdn.com/bphoto/FNf6Sv2vp7JBREXssJOQhA/o.jpg", "is_closed": false, "url": "https://www.yelp.com/biz/tornado-burger-stafford?adjust_creative=rZiFgfUX1eajVOVygdFykg&utm_campaign=yelp_api_v3&utm_medium=api_v3_business_search&utm_source=rZiFgfUX1eajVOVygdFykg", "review_count": 746, "categories": [{"alias": "burgers", "title": "Burgers"}, {"alias": "cheesesteaks", "title": "Cheesesteaks"}, {"alias": "tradamerican", "title": "American (Traditional)"}], "rating": 4.0, "coordinates": {"latitude": 29.611484, "longitude": -95.564245}, "transactions": ["delivery"], "price": "$", "location": {"address1": "505 Fm 1092 Rd", "address2": "", "address3": "", "city": "Stafford", "zip_code": "77477", "country": "US", "state": "TX", "display_address": ["505 Fm 1092 Rd", "Stafford, TX 77477"]}, "phone": "+12814033278", "display_phone": "(281) 403-3278", "distance": 12282.81918323395}, {"id": "U-NkrgumG8ceYdjFqr9DCQ", "alias": "jax-burgers-fries-and-shakes-pearland-2", "name": "JAX Burgers Fries & Shakes", "image_url": "https://s3-media1.fl.yelpcdn.com/bphoto/TpWN6zk9ulDo_tD4iBc73w/o.jpg", "is_closed": false, "url": "https://www.yelp.com/biz/jax-burgers-fries-and-shakes-pearland-2?adjust_creative=rZiFgfUX1eajVOVygdFykg&utm_campaign=yelp_api_v3&utm_medium=api_v3_business_search&utm_source=rZiFgfUX1eajVOVygdFykg", "review_count": 421, "categories": [{"alias": "burgers", "title": "Burgers"}, {"alias": "hotdog", "title": "Hot Dogs"}], "rating": 4.0, "coordinates": {"latitude": 29.57632, "longitude": -95.40555}, "transactions": ["pickup", "delivery"], "price": "$$", "location": {"address1": "12002 Shadow Creek Pkwy", "address2": "", "address3": "", "city": "Pearland", "zip_code": "77584", "country": "US", "state": "TX", "display_address": ["12002 Shadow Creek Pkwy", "Pearland, TX 77584"]}, "phone": "+17134362201", "display_phone": "(713) 436-2201", "distance": 7573.702953436709}, {"id": "RK-_dNPoO78esTXuJQhAhg", "alias": "catdaddys-famous-fried-fish-missouri-city", "name": "Catdaddy's Famous Fried Fish", "image_url": "https://s3-media3.fl.yelpcdn.com/bphoto/b-oVcJZ6g88Dm0l0OcK9Cw/o.jpg", "is_closed": false, "url": "https://www.yelp.com/biz/catdaddys-famous-fried-fish-missouri-city?adjust_creative=rZiFgfUX1eajVOVygdFykg&utm_campaign=yelp_api_v3&utm_medium=api_v3_business_search&utm_source=rZiFgfUX1eajVOVygdFykg", "review_count": 1, "categories": [{"alias": "seafood", "title": "Seafood"}, {"alias": "foodtrucks", "title": "Food Trucks"}], "rating": 4.0, "coordinates": {"latitude": 29.60057, "longitude": -95.49603}, "transactions": [], "location": {"address1": "", "address2": null, "address3": "", "city": "Missouri City", "zip_code": "77489", "country": "US", "state": "TX", "display_address": ["Missouri City, TX 77489"]}, "phone": "+18327168505", "display_phone": "(832) 716-8505", "distance": 7320.022095879072}, {"id": "wJbD-9E7CcoKLpwvQhRlww", "alias": "fire-stone-pizza-bar-pearland-3", "name": "Fire Stone Pizza Bar", "image_url": "https://s3-media2.fl.yelpcdn.com/bphoto/DOnLcuHwGZMFLCogyKgeQQ/o.jpg", "is_closed": false, "url": "https://www.yelp.com/biz/fire-stone-pizza-bar-pearland-3?adjust_creative=rZiFgfUX1eajVOVygdFykg&utm_campaign=yelp_api_v3&utm_medium=api_v3_business_search&utm_source=rZiFgfUX1eajVOVygdFykg", "review_count": 196, "categories": [{"alias": "pizza", "title": "Pizza"}, {"alias": "italian", "title": "Italian"}], "rating": 4.5, "coordinates": {"latitude": 29.556004, "longitude": -95.400454}, "transactions": ["delivery"], "price": "$$", "location": {"address1": "11625 Broadway St", "address2": "Ste 195", "address3": "", "city": "Pearland", "zip_code": "77584", "country": "US", "state": "TX", "display_address": ["11625 Broadway St", "Ste 195", "Pearland, TX 77584"]}, "phone": "+18328506677", "display_phone": "(832) 850-6677", "distance": 7014.71524298478}, {"id": "adgWb4WZBAZxGRZnAd_edA", "alias": "stomps-burger-joint-pearland-pearland", "name": "Stomp's Burger Joint - Pearland", "image_url": "https://s3-media2.fl.yelpcdn.com/bphoto/DFI7TrVUDZeiIpw_Cg_psw/o.jpg", "is_closed": false, "url": "https://www.yelp.com/biz/stomps-burger-joint-pearland-pearland?adjust_creative=rZiFgfUX1eajVOVygdFykg&utm_campaign=yelp_api_v3&utm_medium=api_v3_business_search&utm_source=rZiFgfUX1eajVOVygdFykg", "review_count": 186, "categories": [{"alias": "burgers", "title": "Burgers"}, {"alias": "tradamerican", "title": "American (Traditional)"}], "rating": 4.0, "coordinates": {"latitude": 29.55573, "longitude": -95.41687}, "transactions": ["pickup", "delivery"], "price": "$$", "location": {"address1": "12705 Broadway St", "address2": "Ste 109", "address3": null, "city": "Pearland", "zip_code": "77584", "country": "US", "state": "TX", "display_address": ["12705 Broadway St", "Ste 109", "Pearland, TX 77584"]}, "phone": "+18322203335", "display_phone": "(832) 220-3335", "distance": 5503.9108754399585}, {"id": "aMalXw3fbhjiEURWeb4irw", "alias": "slim-chickens-pearland-2", "name": "Slim Chickens", "image_url": "https://s3-media2.fl.yelpcdn.com/bphoto/1LAfXk0vBTe9LNtPwFFR6w/o.jpg", "is_closed": false, "url": "https://www.yelp.com/biz/slim-chickens-pearland-2?adjust_creative=rZiFgfUX1eajVOVygdFykg&utm_campaign=yelp_api_v3&utm_medium=api_v3_business_search&utm_source=rZiFgfUX1eajVOVygdFykg", "review_count": 61, "categories": [{"alias": "southern", "title": "Southern"}, {"alias": "comfortfood", "title": "Comfort Food"}, {"alias": "tradamerican", "title": "American (Traditional)"}], "rating": 3.5, "coordinates": {"latitude": 29.5559525, "longitude": -95.3943021}, "transactions": ["delivery", "pickup"], "location": {"address1": "11131 Broadway St", "address2": null, "address3": "", "city": "Pearland", "zip_code": "77584", "country": "US", "state": "TX", "display_address": ["11131 Broadway St", "Pearland, TX 77584"]}, "phone": "+13466990150", "display_phone": "(346) 699-0150", "distance": 7719.7573986793805}, {"id": "Phm2fiEfFFqmxSRAuFWsDA", "alias": "wingstop-pearland-4", "name": "Wingstop", "image_url": "https://s3-media2.fl.yelpcdn.com/bphoto/Lu1wG69U0LRx7zAqsdx2eA/o.jpg", "is_closed": false, "url": "https://www.yelp.com/biz/wingstop-pearland-4?adjust_creative=rZiFgfUX1eajVOVygdFykg&utm_campaign=yelp_api_v3&utm_medium=api_v3_business_search&utm_source=rZiFgfUX1eajVOVygdFykg", "review_count": 21, "categories": [{"alias": "chicken_wings", "title": "Chicken Wings"}], "rating": 2.0, "coordinates": {"latitude": 29.554528, "longitude": -95.415117}, "transactions": [], "location": {"address1": "12568 Broadway St", "address2": "Ste 170", "address3": null, "city": "Pearland", "zip_code": "77584", "country": "US", "state": "TX", "display_address": ["12568 Broadway St", "Ste 170", "Pearland, TX 77584"]}, "phone": "+13463849464", "display_phone": "(346) 384-9464", "distance": 5617.593385152518}, {"id": "exCm8c1HuR5F3-H5BSfsvg", "alias": "bourbon-st-daiquiris-pearland", "name": "Bourbon St Daiquiris", "image_url": "https://s3-media2.fl.yelpcdn.com/bphoto/gSkzQm-B3BXs8QWxfRjN_g/o.jpg", "is_closed": false, "url": "https://www.yelp.com/biz/bourbon-st-daiquiris-pearland?adjust_creative=rZiFgfUX1eajVOVygdFykg&utm_campaign=yelp_api_v3&utm_medium=api_v3_business_search&utm_source=rZiFgfUX1eajVOVygdFykg", "review_count": 60, "categories": [{"alias": "bars", "title": "Bars"}], "rating": 3.5, "coordinates": {"latitude": 29.546331630738663, "longitude": -95.39014100247579}, "transactions": [], "price": "$$", "location": {"address1": "3422 Business Center Dr", "address2": "Ste 130", "address3": "", "city": "Pearland", "zip_code": "77584", "country": "US", "state": "TX", "display_address": ["3422 Business Center Dr", "Ste 130", "Pearland, TX 77584"]}, "phone": "", "display_phone": "", "distance": 7768.655953884704}, {"id": "DyWjU_0MxKOtKcVyVKwG3g", "alias": "hooters-pearland-2", "name": "Hooters", "image_url": "https://s3-media4.fl.yelpcdn.com/bphoto/EimcRbD6cO5tsAnTdssTfQ/o.jpg", "is_closed": false, "url": "https://www.yelp.com/biz/hooters-pearland-2?adjust_creative=rZiFgfUX1eajVOVygdFykg&utm_campaign=yelp_api_v3&utm_medium=api_v3_business_search&utm_source=rZiFgfUX1eajVOVygdFykg", "review_count": 148, "categories": [{"alias": "sportsbars", "title": "Sports Bars"}, {"alias": "newamerican", "title": "American (New)"}, {"alias": "chicken_wings", "title": "Chicken Wings"}], "rating": 2.0, "coordinates": {"latitude": 29.56657, "longitude": -95.38794}, "transactions": ["delivery", "pickup"], "price": "$$", "location": {"address1": "15838 South Fwy", "address2": "", "address3": null, "city": "Pearland", "zip_code": "77584", "country": "US", "state": "TX", "display_address": ["15838 South Fwy", "Pearland, TX 77584"]}, "phone": "+17134360108", "display_phone": "(713) 436-0108", "distance": 8549.660540491943}, {"id": "uHF2wLqsesoVqh0lyHXUBw", "alias": "texas-biergarten-missouri-city", "name": "Texas Biergarten", "image_url": "https://s3-media4.fl.yelpcdn.com/bphoto/Fgy60WHuqwLBc4bHbdeOdA/o.jpg", "is_closed": false, "url": "https://www.yelp.com/biz/texas-biergarten-missouri-city?adjust_creative=rZiFgfUX1eajVOVygdFykg&utm_campaign=yelp_api_v3&utm_medium=api_v3_business_search&utm_source=rZiFgfUX1eajVOVygdFykg", "review_count": 274, "categories": [{"alias": "german", "title": "German"}, {"alias": "gastropubs", "title": "Gastropubs"}], "rating": 4.5, "coordinates": {"latitude": 29.562035, "longitude": -95.562823}, "transactions": ["delivery"], "price": "$$", "location": {"address1": "6302 Hwy 6", "address2": "Ste Q", "address3": null, "city": "Missouri City", "zip_code": "77459", "country": "US", "state": "TX", "display_address": ["6302 Hwy 6", "Ste Q", "Missouri City, TX 77459"]}, "phone": "+12817780030", "display_phone": "(281) 778-0030", "distance": 9400.384008423416}, {"id": "2HMug5M1e9Q4naTo4kL9Hw", "alias": "mocity-sports-grill-missouri-city-2", "name": "MoCity Sports Grill", "image_url": "https://s3-media1.fl.yelpcdn.com/bphoto/VkTTi-i_BmezEJv3W8uSkA/o.jpg", "is_closed": false, "url": "https://www.yelp.com/biz/mocity-sports-grill-missouri-city-2?adjust_creative=rZiFgfUX1eajVOVygdFykg&utm_campaign=yelp_api_v3&utm_medium=api_v3_business_search&utm_source=rZiFgfUX1eajVOVygdFykg", "review_count": 22, "categories": [{"alias": "sportsbars", "title": "Sports Bars"}], "rating": 2.0, "coordinates": {"latitude": 29.583491, "longitude": -95.563139}, "transactions": ["delivery", "pickup"], "price": "$$", "location": {"address1": "3760 Cartwright Rd", "address2": null, "address3": "", "city": "Missouri City", "zip_code": "77459", "country": "US", "state": "TX", "display_address": ["3760 Cartwright Rd", "Missouri City, TX 77459"]}, "phone": "+18325391504", "display_phone": "(832) 539-1504", "distance": 10368.16845437769}, {"id": "YUKgNXTpWYu6BezaEi5OPw", "alias": "its-just-wings-missouri-city", "name": "It's Just Wings", "image_url": "", "is_closed": false, "url": "https://www.yelp.com/biz/its-just-wings-missouri-city?adjust_creative=rZiFgfUX1eajVOVygdFykg&utm_campaign=yelp_api_v3&utm_medium=api_v3_business_search&utm_source=rZiFgfUX1eajVOVygdFykg", "review_count": 3, "categories": [{"alias": "chicken_wings", "title": "Chicken Wings"}], "rating": 2.5, "coordinates": {"latitude": 29.56904358322381, "longitude": -95.56833668238198}, "transactions": ["delivery", "pickup"], "location": {"address1": "5788 Hwy 6", "address2": "", "address3": null, "city": "Missouri City", "zip_code": "77459", "country": "US", "state": "TX", "display_address": ["5788 Hwy 6", "Missouri City, TX 77459"]}, "phone": "+14696132018", "display_phone": "(469) 613-2018", "distance": 10150.31167135855}, {"id": "REq51FF-uHLrjvoxbHKKMg", "alias": "the-burger-barn-manvel", "name": "The Burger Barn", "image_url": "https://s3-media1.fl.yelpcdn.com/bphoto/pdKyB2Kw-3Zw8WncCbWWBQ/o.jpg", "is_closed": false, "url": "https://www.yelp.com/biz/the-burger-barn-manvel?adjust_creative=rZiFgfUX1eajVOVygdFykg&utm_campaign=yelp_api_v3&utm_medium=api_v3_business_search&utm_source=rZiFgfUX1eajVOVygdFykg", "review_count": 318, "categories": [{"alias": "burgers", "title": "Burgers"}, {"alias": "mexican", "title": "Mexican"}, {"alias": "hotdog", "title": "Hot Dogs"}], "rating": 3.5, "coordinates": {"latitude": 29.4741815200436, "longitude": -95.3762699108638}, "transactions": ["delivery", "pickup"], "price": "$$", "location": {"address1": "19405 Hwy 6", "address2": "", "address3": "", "city": "Manvel", "zip_code": "77578", "country": "US", "state": "TX", "display_address": ["19405 Hwy 6", "Manvel, TX 77578"]}, "phone": "+12814893200", "display_phone": "(281) 489-3200", "distance": 11476.013761078104}, {"id": "7HilcIv_iUPsRCA9rVjNrw", "alias": "willies-grill-and-icehouse-pearland", "name": "Willie's Grill & Icehouse", "image_url": "https://s3-media1.fl.yelpcdn.com/bphoto/LHSHwkJmEn2VP5UeIcGfCg/o.jpg", "is_closed": false, "url": "https://www.yelp.com/biz/willies-grill-and-icehouse-pearland?adjust_creative=rZiFgfUX1eajVOVygdFykg&utm_campaign=yelp_api_v3&utm_medium=api_v3_business_search&utm_source=rZiFgfUX1eajVOVygdFykg", "review_count": 60, "categories": [{"alias": "tradamerican", "title": "American (Traditional)"}, {"alias": "burgers", "title": "Burgers"}, {"alias": "seafood", "title": "Seafood"}], "rating": 3.0, "coordinates": {"latitude": 29.56155, "longitude": -95.38462}, "transactions": ["delivery", "pickup"], "price": "$$", "location": {"address1": "2600 Smith Ranch Rd", "address2": null, "address3": "", "city": "Pearland", "zip_code": "77584", "country": "US", "state": "TX", "display_address": ["2600 Smith Ranch Rd", "Pearland, TX 77584"]}, "phone": "+13464392705", "display_phone": "(346) 439-2705", "distance": 8422.822870132051}, {"id": "BD7j3AkjZuJpJ8uDSeS1nQ", "alias": "boiling-dragon-pearland", "name": "Boiling Dragon", "image_url": "https://s3-media1.fl.yelpcdn.com/bphoto/x1uGv71uHKgFWf9pW4e7EA/o.jpg", "is_closed": false, "url": "https://www.yelp.com/biz/boiling-dragon-pearland?adjust_creative=rZiFgfUX1eajVOVygdFykg&utm_campaign=yelp_api_v3&utm_medium=api_v3_business_search&utm_source=rZiFgfUX1eajVOVygdFykg", "review_count": 148, "categories": [{"alias": "panasian", "title": "Pan Asian"}, {"alias": "asianfusion", "title": "Asian Fusion"}, {"alias": "seafood", "title": "Seafood"}], "rating": 4.5, "coordinates": {"latitude": 29.556332, "longitude": -95.4002133}, "transactions": ["delivery"], "price": "$$", "location": {"address1": "11625 W. Broadway Blvd.", "address2": "Ste 135", "address3": null, "city": "Pearland", "zip_code": "77584", "country": "US", "state": "TX", "display_address": ["11625 W. Broadway Blvd.", "Ste 135", "Pearland, TX 77584"]}, "phone": "+18323285123", "display_phone": "(832) 328-5123", "distance": 7047.66765195434}, {"id": "r2NOdQ24dfLSfv_F8A75qQ", "alias": "cleo-lounge-pearland", "name": "Cleo Lounge", "image_url": "https://s3-media2.fl.yelpcdn.com/bphoto/lYc2cDg--eLeef63TazXvA/o.jpg", "is_closed": false, "url": "https://www.yelp.com/biz/cleo-lounge-pearland?adjust_creative=rZiFgfUX1eajVOVygdFykg&utm_campaign=yelp_api_v3&utm_medium=api_v3_business_search&utm_source=rZiFgfUX1eajVOVygdFykg", "review_count": 129, "categories": [{"alias": "tapas", "title": "Tapas Bars"}, {"alias": "newamerican", "title": "American (New)"}, {"alias": "lounges", "title": "Lounges"}], "rating": 4.0, "coordinates": {"latitude": 29.557273, "longitude": -95.369206}, "transactions": ["delivery", "pickup"], "price": "$$", "location": {"address1": "9603 Broadway St", "address2": "Ste 101", "address3": null, "city": "Pearland", "zip_code": "77584", "country": "US", "state": "TX", "display_address": ["9603 Broadway St", "Ste 101", "Pearland, TX 77584"]}, "phone": "+18322882326", "display_phone": "(832) 288-2326", "distance": 9975.0273509198}, {"id": "F07eDgl0m4cZyCnyg7Rehw", "alias": "the-commissary-missouri-city", "name": "The Commissary", "image_url": "https://s3-media2.fl.yelpcdn.com/bphoto/RchatMSE5q7rLBVZUM09Hw/o.jpg", "is_closed": false, "url": "https://www.yelp.com/biz/the-commissary-missouri-city?adjust_creative=rZiFgfUX1eajVOVygdFykg&utm_campaign=yelp_api_v3&utm_medium=api_v3_business_search&utm_source=rZiFgfUX1eajVOVygdFykg", "review_count": 1, "categories": [{"alias": "salad", "title": "Salad"}, {"alias": "tacos", "title": "Tacos"}, {"alias": "chicken_wings", "title": "Chicken Wings"}], "rating": 5.0, "coordinates": {"latitude": 29.513186, "longitude": -95.526627}, "transactions": [], "location": {"address1": "4340 Sienna Pkwy", "address2": "Ste 104", "address3": "", "city": "Missouri City", "zip_code": "77459", "country": "US", "state": "TX", "display_address": ["4340 Sienna Pkwy", "Ste 104", "Missouri City, TX 77459"]}, "phone": "+13468167213", "display_phone": "(346) 816-7213", "distance": 6134.004236073981}, {"id": "KLVx1PGSy90Zwhp8jXEFEA", "alias": "greedy-boyz-houston", "name": "Greedy Boyz", "image_url": "https://s3-media3.fl.yelpcdn.com/bphoto/AAPQMYrHaOH_kVkhFaoWvw/o.jpg", "is_closed": false, "url": "https://www.yelp.com/biz/greedy-boyz-houston?adjust_creative=rZiFgfUX1eajVOVygdFykg&utm_campaign=yelp_api_v3&utm_medium=api_v3_business_search&utm_source=rZiFgfUX1eajVOVygdFykg", "review_count": 1, "categories": [{"alias": "foodtrucks", "title": "Food Trucks"}], "rating": 5.0, "coordinates": {"latitude": 29.5375916122, "longitude": -95.4486492574}, "transactions": [], "location": {"address1": "15950 S Post Oak Rd", "address2": null, "address3": "", "city": "Houston", "zip_code": "77053", "country": "US", "state": "TX", "display_address": ["15950 S Post Oak Rd", "Houston, TX 77053"]}, "phone": "+19793315652", "display_phone": "(979) 331-5652", "distance": 2047.9413738104035}, {"id": "ihHp3_rxOrx-HTp1kg7z0w", "alias": "remos-cafe-houston", "name": "ReMo's Cafe", "image_url": "https://s3-media1.fl.yelpcdn.com/bphoto/Xf31syNJszfoEcL-zHaBEg/o.jpg", "is_closed": false, "url": "https://www.yelp.com/biz/remos-cafe-houston?adjust_creative=rZiFgfUX1eajVOVygdFykg&utm_campaign=yelp_api_v3&utm_medium=api_v3_business_search&utm_source=rZiFgfUX1eajVOVygdFykg", "review_count": 78, "categories": [{"alias": "bbq", "title": "Barbeque"}, {"alias": "soulfood", "title": "Soul Food"}, {"alias": "seafood", "title": "Seafood"}], "rating": 4.5, "coordinates": {"latitude": 29.621766, "longitude": -95.508692}, "transactions": ["delivery", "pickup"], "location": {"address1": "8420 S Sam Houston Pkwy W", "address2": "Ste 260", "address3": "", "city": "Houston", "zip_code": "77085", "country": "US", "state": "TX", "display_address": ["8420 S Sam Houston Pkwy W", "Ste 260", "Houston, TX 77085"]}, "phone": "+18326995800", "display_phone": "(832) 699-5800", "distance": 10082.899510905045}, {"id": "HWDLvQQ1k4EfZYHvCuwkEg", "alias": "a-que-listers-smokehouse-bbq-and-catering-fresno", "name": "A Que Lister's Smokehouse BBQ & Catering", "image_url": "https://s3-media3.fl.yelpcdn.com/bphoto/QYa2aHFCiGnbY4WNq-SUOg/o.jpg", "is_closed": false, "url": "https://www.yelp.com/biz/a-que-listers-smokehouse-bbq-and-catering-fresno?adjust_creative=rZiFgfUX1eajVOVygdFykg&utm_campaign=yelp_api_v3&utm_medium=api_v3_business_search&utm_source=rZiFgfUX1eajVOVygdFykg", "review_count": 2, "categories": [{"alias": "catering", "title": "Caterers"}], "rating": 4.5, "coordinates": {"latitude": 29.524938583374, "longitude": -95.4753723144531}, "transactions": [], "location": {"address1": null, "address2": null, "address3": null, "city": "Fresno", "zip_code": "77545", "country": "US", "state": "TX", "display_address": ["Fresno, TX 77545"]}, "phone": "+18325582986", "display_phone": "(832) 558-2986", "distance": 704.3898359432676}, {"id": "qtmnV1gDpYzWUWYc5DnxCA", "alias": "alexs-kitchen-missouri-city", "name": "Alex's Kitchen", "image_url": "https://s3-media3.fl.yelpcdn.com/bphoto/-3niP7RznQRF5DcvOs9fmg/o.jpg", "is_closed": false, "url": "https://www.yelp.com/biz/alexs-kitchen-missouri-city?adjust_creative=rZiFgfUX1eajVOVygdFykg&utm_campaign=yelp_api_v3&utm_medium=api_v3_business_search&utm_source=rZiFgfUX1eajVOVygdFykg", "review_count": 275, "categories": [{"alias": "italian", "title": "Italian"}, {"alias": "newamerican", "title": "American (New)"}], "rating": 4.5, "coordinates": {"latitude": 29.582214, "longitude": -95.543852}, "transactions": ["delivery"], "price": "$$", "location": {"address1": "2601 Cartwright Rd", "address2": "Ste E", "address3": null, "city": "Missouri City", "zip_code": "77459", "country": "US", "state": "TX", "display_address": ["2601 Cartwright Rd", "Ste E", "Missouri City, TX 77459"]}, "phone": "+18329871705", "display_phone": "(832) 987-1705", "distance": 8710.634174179353}, {"id": "tf-LwW5wcyCEGw4mIWEhrw", "alias": "boogies-chicago-style-bbq-missouri-city-2", "name": "Boogie's Chicago Style BBQ", "image_url": "https://s3-media3.fl.yelpcdn.com/bphoto/J-Yg6HnrJ8JJvbVDzS2xgQ/o.jpg", "is_closed": false, "url": "https://www.yelp.com/biz/boogies-chicago-style-bbq-missouri-city-2?adjust_creative=rZiFgfUX1eajVOVygdFykg&utm_campaign=yelp_api_v3&utm_medium=api_v3_business_search&utm_source=rZiFgfUX1eajVOVygdFykg", "review_count": 133, "categories": [{"alias": "bbq", "title": "Barbeque"}, {"alias": "burgers", "title": "Burgers"}, {"alias": "foodtrucks", "title": "Food Trucks"}], "rating": 3.5, "coordinates": {"latitude": 29.600604, "longitude": -95.5259907}, "transactions": ["delivery", "pickup"], "price": "$", "location": {"address1": "1767 Texas Pkwy", "address2": null, "address3": null, "city": "Missouri City", "zip_code": "77489", "country": "US", "state": "TX", "display_address": ["1767 Texas Pkwy", "Missouri City, TX 77489"]}, "phone": "+12819698626", "display_phone": "(281) 969-8626", "distance": 8864.474895858997}, {"id": "Hm32lqkZIHGgoqxwBe1Dgw", "alias": "houston-gyro-missouri-city", "name": "Houston Gyro", "image_url": "https://s3-media4.fl.yelpcdn.com/bphoto/dBeGQZiCP8eP-5fHMs_lMg/o.jpg", "is_closed": false, "url": "https://www.yelp.com/biz/houston-gyro-missouri-city?adjust_creative=rZiFgfUX1eajVOVygdFykg&utm_campaign=yelp_api_v3&utm_medium=api_v3_business_search&utm_source=rZiFgfUX1eajVOVygdFykg", "review_count": 2, "categories": [{"alias": "hotdogs", "title": "Fast Food"}], "rating": 5.0, "coordinates": {"latitude": 29.58972747787013, "longitude": -95.563447}, "transactions": ["delivery", "pickup"], "location": {"address1": "2031 Fm 1092", "address2": null, "address3": "", "city": "Missouri City", "zip_code": "77459", "country": "US", "state": "TX", "display_address": ["2031 Fm 1092", "Missouri City, TX 77459"]}, "phone": "", "display_phone": "", "distance": 10751.244067404019}, {"id": "c_sa1rZk6eKzEIPA-tQYTg", "alias": "dannys-crawfish-and-seafoods-missouri-city", "name": "Danny's Crawfish & Seafoods", "image_url": "https://s3-media2.fl.yelpcdn.com/bphoto/LXmGKck4ahL_Lfp9rm0vEw/o.jpg", "is_closed": false, "url": "https://www.yelp.com/biz/dannys-crawfish-and-seafoods-missouri-city?adjust_creative=rZiFgfUX1eajVOVygdFykg&utm_campaign=yelp_api_v3&utm_medium=api_v3_business_search&utm_source=rZiFgfUX1eajVOVygdFykg", "review_count": 14, "categories": [{"alias": "seafood", "title": "Seafood"}], "rating": 4.5, "coordinates": {"latitude": 29.59936, "longitude": -95.492169}, "transactions": [], "location": {"address1": "7046 W Fuqua St", "address2": "", "address3": null, "city": "Missouri City", "zip_code": "77489", "country": "US", "state": "TX", "display_address": ["7046 W Fuqua St", "Missouri City, TX 77489"]}, "phone": "+18322435713", "display_phone": "(832) 243-5713", "distance": 7198.579315410477}, {"id": "moSRA3iMcmTsvMFTV9czSQ", "alias": "qq-china-cafe-missouri-city", "name": "QQ China Cafe", "image_url": "https://s3-media2.fl.yelpcdn.com/bphoto/r7EM4oRbZmgHnFM_dxcIEw/o.jpg", "is_closed": false, "url": "https://www.yelp.com/biz/qq-china-cafe-missouri-city?adjust_creative=rZiFgfUX1eajVOVygdFykg&utm_campaign=yelp_api_v3&utm_medium=api_v3_business_search&utm_source=rZiFgfUX1eajVOVygdFykg", "review_count": 86, "categories": [{"alias": "chinese", "title": "Chinese"}], "rating": 3.5, "coordinates": {"latitude": 29.529503, "longitude": -95.509826}, "transactions": ["delivery"], "price": "$", "location": {"address1": "10330 Texas 6", "address2": "", "address3": "", "city": "Missouri City", "zip_code": "77459", "country": "US", "state": "TX", "display_address": ["10330 Texas 6", "Missouri City, TX 77459"]}, "phone": "+12814317777", "display_phone": "(281) 431-7777", "distance": 4055.9245760182876}, {"id": "4-TxcY8ZgNquIqMWuWFrCg", "alias": "seven-seeds-texas-barbecue-rosharon-2", "name": "Seven Seeds Texas Barbecue", "image_url": "https://s3-media1.fl.yelpcdn.com/bphoto/9odk3xPpz-dxfC1MJB6k_Q/o.jpg", "is_closed": false, "url": "https://www.yelp.com/biz/seven-seeds-texas-barbecue-rosharon-2?adjust_creative=rZiFgfUX1eajVOVygdFykg&utm_campaign=yelp_api_v3&utm_medium=api_v3_business_search&utm_source=rZiFgfUX1eajVOVygdFykg", "review_count": 21, "categories": [{"alias": "bbq", "title": "Barbeque"}, {"alias": "foodtrucks", "title": "Food Trucks"}], "rating": 4.0, "coordinates": {"latitude": 29.5429847, "longitude": -95.4174946}, "transactions": ["delivery", "pickup"], "location": {"address1": "3040 Cr 48", "address2": "", "address3": null, "city": "Rosharon", "zip_code": "77583", "country": "US", "state": "TX", "display_address": ["3040 Cr 48", "Rosharon, TX 77583"]}, "phone": "+12816150496", "display_phone": "(281) 615-0496", "distance": 5096.971198799551}, {"id": "ZJ2X-972KAUSlnvk75YhUA", "alias": "daiquiri-shack-missouri-city", "name": "Daiquiri Shack", "image_url": "https://s3-media4.fl.yelpcdn.com/bphoto/NXCTJLNvtFwbA4XyRXUIBA/o.jpg", "is_closed": false, "url": "https://www.yelp.com/biz/daiquiri-shack-missouri-city?adjust_creative=rZiFgfUX1eajVOVygdFykg&utm_campaign=yelp_api_v3&utm_medium=api_v3_business_search&utm_source=rZiFgfUX1eajVOVygdFykg", "review_count": 8, "categories": [{"alias": "drivethrubars", "title": "Drive-Thru Bars"}, {"alias": "chicken_wings", "title": "Chicken Wings"}, {"alias": "pizza", "title": "Pizza"}], "rating": 5.0, "coordinates": {"latitude": 29.57943246377898, "longitude": -95.51745846679536}, "transactions": ["delivery", "pickup"], "location": {"address1": "3708 Mchard Rd", "address2": "Ste D", "address3": "", "city": "Missouri City", "zip_code": "77489", "country": "US", "state": "TX", "display_address": ["3708 Mchard Rd", "Ste D", "Missouri City, TX 77489"]}, "phone": "+18328507059", "display_phone": "(832) 850-7059", "distance": 6546.7756251239225}, {"id": "m0izmwddpOLRWMgqfXCaGw", "alias": "bombshells-restaurant-and-bar-pearland", "name": "Bombshells Restaurant & Bar", "image_url": "https://s3-media3.fl.yelpcdn.com/bphoto/wPmSneAsqnLhWnu5QOubDQ/o.jpg", "is_closed": false, "url": "https://www.yelp.com/biz/bombshells-restaurant-and-bar-pearland?adjust_creative=rZiFgfUX1eajVOVygdFykg&utm_campaign=yelp_api_v3&utm_medium=api_v3_business_search&utm_source=rZiFgfUX1eajVOVygdFykg", "review_count": 229, "categories": [{"alias": "sportsbars", "title": "Sports Bars"}, {"alias": "tradamerican", "title": "American (Traditional)"}], "rating": 2.5, "coordinates": {"latitude": 29.592331, "longitude": -95.385111}, "transactions": ["delivery", "pickup"], "price": "$$", "location": {"address1": "13965 South Fwy", "address2": "", "address3": null, "city": "Pearland", "zip_code": "77584", "country": "US", "state": "TX", "display_address": ["13965 South Fwy", "Pearland, TX 77584"]}, "phone": "+13468022609", "display_phone": "(346) 802-2609", "distance": 10205.059930348747}, {"id": "flqrxuif4qp7UYaCtrfPWA", "alias": "pho-seafood-and-crawfish-missouri-city", "name": "Pho Seafood & Crawfish", "image_url": "https://s3-media4.fl.yelpcdn.com/bphoto/bH0ym721K2G7EkJpdPjz4w/o.jpg", "is_closed": false, "url": "https://www.yelp.com/biz/pho-seafood-and-crawfish-missouri-city?adjust_creative=rZiFgfUX1eajVOVygdFykg&utm_campaign=yelp_api_v3&utm_medium=api_v3_business_search&utm_source=rZiFgfUX1eajVOVygdFykg", "review_count": 33, "categories": [{"alias": "seafood", "title": "Seafood"}, {"alias": "vietnamese", "title": "Vietnamese"}, {"alias": "asianfusion", "title": "Asian Fusion"}], "rating": 4.5, "coordinates": {"latitude": 29.5834036196037, "longitude": -95.5255183967138}, "transactions": ["delivery", "pickup"], "price": "$$", "location": {"address1": "3003 Texas Pkwy", "address2": "", "address3": null, "city": "Missouri City", "zip_code": "77489", "country": "US", "state": "TX", "display_address": ["3003 Texas Pkwy", "Missouri City, TX 77489"]}, "phone": "", "display_phone": "", "distance": 7413.0583553276465}, {"id": "7yFI7Zi7NOWPOt-qsGi79g", "alias": "houstatlantavegan-houston", "name": "Houstatlantavegan", "image_url": "https://s3-media4.fl.yelpcdn.com/bphoto/0pHooVqPxzYfmBRz_3T3JQ/o.jpg", "is_closed": false, "url": "https://www.yelp.com/biz/houstatlantavegan-houston?adjust_creative=rZiFgfUX1eajVOVygdFykg&utm_campaign=yelp_api_v3&utm_medium=api_v3_business_search&utm_source=rZiFgfUX1eajVOVygdFykg", "review_count": 48, "categories": [{"alias": "vegan", "title": "Vegan"}, {"alias": "foodtrucks", "title": "Food Trucks"}, {"alias": "comfortfood", "title": "Comfort Food"}], "rating": 5.0, "coordinates": {"latitude": 29.6141217, "longitude": -95.4644081}, "transactions": ["delivery", "pickup"], "price": "$$", "location": {"address1": "14613 S Post Oak Rd", "address2": null, "address3": null, "city": "Houston", "zip_code": "77045", "country": "US", "state": "TX", "display_address": ["14613 S Post Oak Rd", "Houston, TX 77045"]}, "phone": "+18328825568", "display_phone": "(832) 882-5568", "distance": 8523.85490296539}, {"id": "ubs6UQL9oxSZFFNdC-Q_Dw", "alias": "mikkis-soulfood-cafe-pearland", "name": "Mikki's Soulfood Cafe", "image_url": "https://s3-media2.fl.yelpcdn.com/bphoto/wAFlenzuIpmcpJnR31Tnig/o.jpg", "is_closed": false, "url": "https://www.yelp.com/biz/mikkis-soulfood-cafe-pearland?adjust_creative=rZiFgfUX1eajVOVygdFykg&utm_campaign=yelp_api_v3&utm_medium=api_v3_business_search&utm_source=rZiFgfUX1eajVOVygdFykg", "review_count": 193, "categories": [{"alias": "southern", "title": "Southern"}, {"alias": "soulfood", "title": "Soul Food"}, {"alias": "cajun", "title": "Cajun/Creole"}], "rating": 3.5, "coordinates": {"latitude": 29.557286, "longitude": -95.369253}, "transactions": ["delivery"], "price": "$$", "location": {"address1": "9603 Broadway St 108", "address2": "Ste 108", "address3": null, "city": "Pearland", "zip_code": "77584", "country": "US", "state": "TX", "display_address": ["9603 Broadway St 108", "Ste 108", "Pearland, TX 77584"]}, "phone": "+12819191506", "display_phone": "(281) 919-1506", "distance": 9971.04314332791}, {"id": "cGUQW695biMNCP-tQtiRlg", "alias": "wingstop-pearland-2", "name": "Wingstop", "image_url": "https://s3-media2.fl.yelpcdn.com/bphoto/1O-MrrOoNRbtwNHwaGscjg/o.jpg", "is_closed": false, "url": "https://www.yelp.com/biz/wingstop-pearland-2?adjust_creative=rZiFgfUX1eajVOVygdFykg&utm_campaign=yelp_api_v3&utm_medium=api_v3_business_search&utm_source=rZiFgfUX1eajVOVygdFykg", "review_count": 103, "categories": [{"alias": "chicken_wings", "title": "Chicken Wings"}], "rating": 2.0, "coordinates": {"latitude": 29.58089770967348, "longitude": -95.39086115337297}, "transactions": [], "price": "$$", "location": {"address1": "11037 Shadow Creek Pkwy", "address2": "Ste 109", "address3": "", "city": "Pearland", "zip_code": "77584", "country": "US", "state": "TX", "display_address": ["11037 Shadow Creek Pkwy", "Ste 109", "Pearland, TX 77584"]}, "phone": "+17134369808", "display_phone": "(713) 436-9808", "distance": 9027.268043773716}, {"id": "QfSEd5DRO711zQ7gWcU-BQ", "alias": "louisiana-famous-fried-chicken-houston-12", "name": "Louisiana Famous Fried Chicken", "image_url": "https://s3-media2.fl.yelpcdn.com/bphoto/5bfTinqAskTra8xtfvJ4Hg/o.jpg", "is_closed": false, "url": "https://www.yelp.com/biz/louisiana-famous-fried-chicken-houston-12?adjust_creative=rZiFgfUX1eajVOVygdFykg&utm_campaign=yelp_api_v3&utm_medium=api_v3_business_search&utm_source=rZiFgfUX1eajVOVygdFykg", "review_count": 13, "categories": [{"alias": "chicken_wings", "title": "Chicken Wings"}, {"alias": "hotdogs", "title": "Fast Food"}], "rating": 3.0, "coordinates": {"latitude": 29.6012, "longitude": -95.46517}, "transactions": ["delivery", "pickup"], "price": "$$", "location": {"address1": "5504 S Sam Houston Pkwy W", "address2": "Ste B", "address3": null, "city": "Houston", "zip_code": "77053", "country": "US", "state": "TX", "display_address": ["5504 S Sam Houston Pkwy W", "Ste B", "Houston, TX 77053"]}, "phone": "+17134339101", "display_phone": "(713) 433-9101", "distance": 7093.2424052742845}, {"id": "wmSsfKRY46btoSDH1MI50g", "alias": "the-laroux-table-houston", "name": "The Laroux Table", "image_url": "https://s3-media3.fl.yelpcdn.com/bphoto/DU8xlCF4q1dCkrj7Jg35bw/o.jpg", "is_closed": false, "url": "https://www.yelp.com/biz/the-laroux-table-houston?adjust_creative=rZiFgfUX1eajVOVygdFykg&utm_campaign=yelp_api_v3&utm_medium=api_v3_business_search&utm_source=rZiFgfUX1eajVOVygdFykg", "review_count": 19, "categories": [{"alias": "catering", "title": "Caterers"}], "rating": 4.5, "coordinates": {"latitude": 29.596673449065563, "longitude": -95.37886460000001}, "transactions": ["delivery", "pickup"], "location": {"address1": "2944 S Houston Pkwy E", "address2": null, "address3": null, "city": "Houston", "zip_code": "77047", "country": "US", "state": "TX", "display_address": ["2944 S Houston Pkwy E", "Houston, TX 77047"]}, "phone": "+18329497820", "display_phone": "(832) 949-7820", "distance": 10977.843157307763}, {"id": "Dokvz0dKCK1AJugWzO4dYw", "alias": "timmy-chan-restaurant-missouri-city", "name": "Timmy Chan Restaurant", "image_url": "https://s3-media2.fl.yelpcdn.com/bphoto/2vcQ11GL8dfbpt2N4_3N9g/o.jpg", "is_closed": false, "url": "https://www.yelp.com/biz/timmy-chan-restaurant-missouri-city?adjust_creative=rZiFgfUX1eajVOVygdFykg&utm_campaign=yelp_api_v3&utm_medium=api_v3_business_search&utm_source=rZiFgfUX1eajVOVygdFykg", "review_count": 23, "categories": [{"alias": "chinese", "title": "Chinese"}], "rating": 2.0, "coordinates": {"latitude": 29.597671, "longitude": -95.526268}, "transactions": ["delivery"], "price": "$", "location": {"address1": "2015 Texas Pkwy", "address2": "", "address3": "", "city": "Missouri City", "zip_code": "77489", "country": "US", "state": "TX", "display_address": ["2015 Texas Pkwy", "Missouri City, TX 77489"]}, "phone": "+12814992288", "display_phone": "(281) 499-2288", "distance": 8628.33844367517}, {"id": "g4474vmAgpyTqXY4U8jkqg", "alias": "churchs-chicken-fresno-2", "name": "Church's Chicken", "image_url": "https://s3-media2.fl.yelpcdn.com/bphoto/oj_sI74v60gz5GHGwDDqew/o.jpg", "is_closed": false, "url": "https://www.yelp.com/biz/churchs-chicken-fresno-2?adjust_creative=rZiFgfUX1eajVOVygdFykg&utm_campaign=yelp_api_v3&utm_medium=api_v3_business_search&utm_source=rZiFgfUX1eajVOVygdFykg", "review_count": 11, "categories": [{"alias": "hotdogs", "title": "Fast Food"}, {"alias": "chicken_wings", "title": "Chicken Wings"}], "rating": 1.5, "coordinates": {"latitude": 29.5454, "longitude": -95.4698}, "transactions": ["delivery", "pickup"], "location": {"address1": "12320 Hwy 6", "address2": "", "address3": "", "city": "Fresno", "zip_code": "77545", "country": "US", "state": "TX", "display_address": ["12320 Hwy 6", "Fresno, TX 77545"]}, "phone": "+12814315200", "display_phone": "(281) 431-5200", "distance": 866.289451346061}, {"id": "gIxMtRLOUDR9WP1CqXP6jg", "alias": "creole-french-fried-chicken-houston-2", "name": "Creole French Fried Chicken", "image_url": "https://s3-media1.fl.yelpcdn.com/bphoto/q-hi7FrQbc3kPD0UQt2t9Q/o.jpg", "is_closed": false, "url": "https://www.yelp.com/biz/creole-french-fried-chicken-houston-2?adjust_creative=rZiFgfUX1eajVOVygdFykg&utm_campaign=yelp_api_v3&utm_medium=api_v3_business_search&utm_source=rZiFgfUX1eajVOVygdFykg", "review_count": 4, "categories": [{"alias": "newamerican", "title": "American (New)"}, {"alias": "chicken_wings", "title": "Chicken Wings"}], "rating": 3.0, "coordinates": {"latitude": 29.59522, "longitude": -95.46702}, "transactions": [], "location": {"address1": "15901 S Post Oak Rd", "address2": "Ste D", "address3": "", "city": "Houston", "zip_code": "77053", "country": "US", "state": "TX", "display_address": ["15901 S Post Oak Rd", "Ste D", "Houston, TX 77053"]}, "phone": "+12814373863", "display_phone": "(281) 437-3863", "distance": 6413.213407741789}, {"id": "chuj4i5TRnFdFS0z_vAU9w", "alias": "boutte-s-bbq-fresno-2", "name": "Boutte\u2019s BBQ", "image_url": "https://s3-media2.fl.yelpcdn.com/bphoto/YjCrPAy8z1K_YiUs3CZ8sw/o.jpg", "is_closed": false, "url": "https://www.yelp.com/biz/boutte-s-bbq-fresno-2?adjust_creative=rZiFgfUX1eajVOVygdFykg&utm_campaign=yelp_api_v3&utm_medium=api_v3_business_search&utm_source=rZiFgfUX1eajVOVygdFykg", "review_count": 7, "categories": [{"alias": "foodtrucks", "title": "Food Trucks"}, {"alias": "bbq", "title": "Barbeque"}], "rating": 5.0, "coordinates": {"latitude": 29.53606, "longitude": -95.47645}, "transactions": [], "location": {"address1": "1514 Trammel Fresno Rd", "address2": null, "address3": "", "city": "Fresno", "zip_code": "77545", "country": "US", "state": "TX", "display_address": ["1514 Trammel Fresno Rd", "Fresno, TX 77545"]}, "phone": "+17134692669", "display_phone": "(713) 469-2669", "distance": 660.1141558818418}, {"id": "TZwiyItVWfMhu6iYunWtew", "alias": "crafty-crab-pearland", "name": "Crafty Crab", "image_url": "https://s3-media4.fl.yelpcdn.com/bphoto/IRcbiKvOq-7mPUR0y3MPrw/o.jpg", "is_closed": false, "url": "https://www.yelp.com/biz/crafty-crab-pearland?adjust_creative=rZiFgfUX1eajVOVygdFykg&utm_campaign=yelp_api_v3&utm_medium=api_v3_business_search&utm_source=rZiFgfUX1eajVOVygdFykg", "review_count": 93, "categories": [{"alias": "seafood", "title": "Seafood"}, {"alias": "cajun", "title": "Cajun/Creole"}], "rating": 3.0, "coordinates": {"latitude": 29.55494696513332, "longitude": -95.39187685185183}, "transactions": ["delivery", "pickup"], "price": "$$", "location": {"address1": "11104 Broadway St", "address2": "", "address3": null, "city": "Pearland", "zip_code": "77584", "country": "US", "state": "TX", "display_address": ["11104 Broadway St", "Pearland, TX 77584"]}, "phone": "+18328561111", "display_phone": "(832) 856-1111", "distance": 7782.202152088199}, {"id": "OTRz9idzMT5kaQvQh7KNUA", "alias": "b-yvonne-s-southern-eatery-stafford", "name": "B. Yvonne\u2019s Southern Eatery", "image_url": "https://s3-media4.fl.yelpcdn.com/bphoto/Gp1E7y4BLz1d9R9ed09HSw/o.jpg", "is_closed": false, "url": "https://www.yelp.com/biz/b-yvonne-s-southern-eatery-stafford?adjust_creative=rZiFgfUX1eajVOVygdFykg&utm_campaign=yelp_api_v3&utm_medium=api_v3_business_search&utm_source=rZiFgfUX1eajVOVygdFykg", "review_count": 4, "categories": [{"alias": "southern", "title": "Southern"}, {"alias": "cajun", "title": "Cajun/Creole"}, {"alias": "soulfood", "title": "Soul Food"}], "rating": 5.0, "coordinates": {"latitude": 29.6112954, "longitude": -95.56505059999999}, "transactions": ["delivery", "pickup"], "location": {"address1": "508 Murphy Rd", "address2": "Ste H", "address3": "", "city": "Stafford", "zip_code": "77477", "country": "US", "state": "TX", "display_address": ["508 Murphy Rd", "Ste H", "Stafford, TX 77477"]}, "phone": "+18325391007", "display_phone": "(832) 539-1007", "distance": 12326.907713635836}, {"id": "rFCX1BetAQzpep0LK1bL1g", "alias": "hk-seafood-and-wings-houston", "name": "Hk Seafood & Wings", "image_url": "https://s3-media4.fl.yelpcdn.com/bphoto/LL-savpUxT9u65lWNRNVkA/o.jpg", "is_closed": false, "url": "https://www.yelp.com/biz/hk-seafood-and-wings-houston?adjust_creative=rZiFgfUX1eajVOVygdFykg&utm_campaign=yelp_api_v3&utm_medium=api_v3_business_search&utm_source=rZiFgfUX1eajVOVygdFykg", "review_count": 14, "categories": [{"alias": "cajun", "title": "Cajun/Creole"}, {"alias": "seafood", "title": "Seafood"}, {"alias": "chinese", "title": "Chinese"}], "rating": 2.5, "coordinates": {"latitude": 29.5959512119308, "longitude": -95.4672837943344}, "transactions": ["delivery"], "price": "$", "location": {"address1": "15834 S Post Oak", "address2": "", "address3": "", "city": "Houston", "zip_code": "77053", "country": "US", "state": "TX", "display_address": ["15834 S Post Oak", "Houston, TX 77053"]}, "phone": "+12814378802", "display_phone": "(281) 437-8802", "distance": 6491.948477598668}, {"id": "uDfGrwO77t6qS9SisWyQIQ", "alias": "sams-boat-pearland-2", "name": "Sam's Boat", "image_url": "https://s3-media2.fl.yelpcdn.com/bphoto/2FlVomQwJo_YHUcU5qCQ4A/o.jpg", "is_closed": false, "url": "https://www.yelp.com/biz/sams-boat-pearland-2?adjust_creative=rZiFgfUX1eajVOVygdFykg&utm_campaign=yelp_api_v3&utm_medium=api_v3_business_search&utm_source=rZiFgfUX1eajVOVygdFykg", "review_count": 199, "categories": [{"alias": "seafood", "title": "Seafood"}, {"alias": "sportsbars", "title": "Sports Bars"}], "rating": 2.5, "coordinates": {"latitude": 29.549511258338487, "longitude": -95.38640169564958}, "transactions": ["delivery", "pickup"], "price": "$$", "location": {"address1": "3239 Silverlake Village Dr", "address2": "", "address3": null, "city": "Pearland", "zip_code": "77584", "country": "US", "state": "TX", "display_address": ["3239 Silverlake Village Dr", "Pearland, TX 77584"]}, "phone": "+17134360201", "display_phone": "(713) 436-0201", "distance": 8177.290486018575}, {"id": "0877CpzjS4s2L3MAYIsbxw", "alias": "lotus-seafood-stafford-2", "name": "Lotus Seafood", "image_url": "https://s3-media4.fl.yelpcdn.com/bphoto/D8X43g2m48ZZPkF2LpYvYQ/o.jpg", "is_closed": false, "url": "https://www.yelp.com/biz/lotus-seafood-stafford-2?adjust_creative=rZiFgfUX1eajVOVygdFykg&utm_campaign=yelp_api_v3&utm_medium=api_v3_business_search&utm_source=rZiFgfUX1eajVOVygdFykg", "review_count": 60, "categories": [{"alias": "seafood", "title": "Seafood"}, {"alias": "cajun", "title": "Cajun/Creole"}, {"alias": "chicken_wings", "title": "Chicken Wings"}], "rating": 3.5, "coordinates": {"latitude": 29.61522062610315, "longitude": -95.55940351469347}, "transactions": [], "price": "$$", "location": {"address1": "2903 S Main St", "address2": "Ste A", "address3": "", "city": "Stafford", "zip_code": "77477", "country": "US", "state": "TX", "display_address": ["2903 S Main St", "Ste A", "Stafford, TX 77477"]}, "phone": "+13467874888", "display_phone": "(346) 787-4888", "distance": 12228.314082251176}, {"id": "nv52xxLbG9te_vaRzIoG1g", "alias": "second-seafood-market-houston", "name": "Second Seafood Market", "image_url": "https://s3-media4.fl.yelpcdn.com/bphoto/af4feGSYuEoCvZZP8tnfgQ/o.jpg", "is_closed": false, "url": "https://www.yelp.com/biz/second-seafood-market-houston?adjust_creative=rZiFgfUX1eajVOVygdFykg&utm_campaign=yelp_api_v3&utm_medium=api_v3_business_search&utm_source=rZiFgfUX1eajVOVygdFykg", "review_count": 43, "categories": [{"alias": "seafood", "title": "Seafood"}, {"alias": "chinese", "title": "Chinese"}], "rating": 4.0, "coordinates": {"latitude": 29.625274, "longitude": -95.464775}, "transactions": ["delivery", "pickup"], "price": "$$", "location": {"address1": "13899 S Post Oak Rd", "address2": null, "address3": "", "city": "Houston", "zip_code": "77045", "country": "US", "state": "TX", "display_address": ["13899 S Post Oak Rd", "Houston, TX 77045"]}, "phone": "+17134333336", "display_phone": "(713) 433-3336", "distance": 9759.895273159289}, {"id": "Rfdf2PS-06olOeA0241nyw", "alias": "lotus-seafood-pearland-2", "name": "Lotus Seafood", "image_url": "https://s3-media2.fl.yelpcdn.com/bphoto/05GhoJ3rt2v-0E5pYA9CFQ/o.jpg", "is_closed": false, "url": "https://www.yelp.com/biz/lotus-seafood-pearland-2?adjust_creative=rZiFgfUX1eajVOVygdFykg&utm_campaign=yelp_api_v3&utm_medium=api_v3_business_search&utm_source=rZiFgfUX1eajVOVygdFykg", "review_count": 358, "categories": [{"alias": "seafood", "title": "Seafood"}], "rating": 3.5, "coordinates": {"latitude": 29.5553918, "longitude": -95.3999515}, "transactions": ["pickup"], "price": "$$", "location": {"address1": "11710 Broadway St", "address2": "Ste 128", "address3": null, "city": "Pearland", "zip_code": "77584", "country": "US", "state": "TX", "display_address": ["11710 Broadway St", "Ste 128", "Pearland, TX 77584"]}, "phone": "+12812584182", "display_phone": "(281) 258-4182", "distance": 6863.5755045577835}, {"id": "dr7yEDEGplGnrM2UQ0ANUQ", "alias": "raki-sugar-land", "name": "Raki", "image_url": "https://s3-media4.fl.yelpcdn.com/bphoto/ekK1GO2TDXBpTPJsw-d7XA/o.jpg", "is_closed": false, "url": "https://www.yelp.com/biz/raki-sugar-land?adjust_creative=rZiFgfUX1eajVOVygdFykg&utm_campaign=yelp_api_v3&utm_medium=api_v3_business_search&utm_source=rZiFgfUX1eajVOVygdFykg", "review_count": 139, "categories": [{"alias": "japanese", "title": "Japanese"}, {"alias": "indonesian", "title": "Indonesian"}, {"alias": "chinese", "title": "Chinese"}], "rating": 4.5, "coordinates": {"latitude": 29.5620583, "longitude": -95.5628291}, "transactions": ["delivery", "pickup"], "price": "$$", "location": {"address1": "6302 Hwy 6", "address2": "", "address3": null, "city": "Sugar Land", "zip_code": "77459", "country": "US", "state": "TX", "display_address": ["6302 Hwy 6", "Sugar Land, TX 77459"]}, "phone": "+12812612288", "display_phone": "(281) 261-2288", "distance": 9398.842986988248}, {"id": "bqIcMb8ERZnZX7lI3aiQmA", "alias": "crawfish-and-pho-missouri-city", "name": "Crawfish & Pho", "image_url": "https://s3-media3.fl.yelpcdn.com/bphoto/j43HPlz3jUN9b2vFvMoErQ/o.jpg", "is_closed": false, "url": "https://www.yelp.com/biz/crawfish-and-pho-missouri-city?adjust_creative=rZiFgfUX1eajVOVygdFykg&utm_campaign=yelp_api_v3&utm_medium=api_v3_business_search&utm_source=rZiFgfUX1eajVOVygdFykg", "review_count": 153, "categories": [{"alias": "vietnamese", "title": "Vietnamese"}, {"alias": "seafood", "title": "Seafood"}, {"alias": "soup", "title": "Soup"}], "rating": 4.0, "coordinates": {"latitude": 29.51019225443302, "longitude": -95.52754187725182}, "transactions": ["delivery", "pickup"], "price": "$$", "location": {"address1": "4225 Sienna Pkwy", "address2": "Ste 200", "address3": null, "city": "Missouri City", "zip_code": "77459", "country": "US", "state": "TX", "display_address": ["4225 Sienna Pkwy", "Ste 200", "Missouri City, TX 77459"]}, "phone": "+18324400611", "display_phone": "(832) 440-0611", "distance": 6363.005020052645}, {"id": "sHmLKx1zfmqey_TjaoR3-g", "alias": "russos-new-york-pizzeria-and-italian-kitchen-sienna-plantation-missouri-city", "name": "Russo's New York Pizzeria & Italian Kitchen - Sienna Plantation", "image_url": "https://s3-media1.fl.yelpcdn.com/bphoto/wbgoJj7NiL2fkgVFfULtTA/o.jpg", "is_closed": false, "url": "https://www.yelp.com/biz/russos-new-york-pizzeria-and-italian-kitchen-sienna-plantation-missouri-city?adjust_creative=rZiFgfUX1eajVOVygdFykg&utm_campaign=yelp_api_v3&utm_medium=api_v3_business_search&utm_source=rZiFgfUX1eajVOVygdFykg", "review_count": 156, "categories": [{"alias": "pizza", "title": "Pizza"}, {"alias": "italian", "title": "Italian"}, {"alias": "wine_bars", "title": "Wine Bars"}], "rating": 2.5, "coordinates": {"latitude": 29.5304107, "longitude": -95.5084991}, "transactions": ["delivery", "pickup"], "price": "$$", "location": {"address1": "10350 Hwy 6 G", "address2": "Suite G", "address3": "", "city": "Missouri City", "zip_code": "77459", "country": "US", "state": "TX", "display_address": ["10350 Hwy 6 G", "Suite G", "Missouri City, TX 77459"]}, "phone": "+12814316637", "display_phone": "(281) 431-6637", "distance": 3826.8980894363312}, {"id": "QjzBi1OflDi4HJ3P_P86qA", "alias": "r-and-r-bar-b-que-missouri-city", "name": "R&R Bar B Que", "image_url": "https://s3-media4.fl.yelpcdn.com/bphoto/XRNmDHNvtE9K-ecivSyXqw/o.jpg", "is_closed": false, "url": "https://www.yelp.com/biz/r-and-r-bar-b-que-missouri-city?adjust_creative=rZiFgfUX1eajVOVygdFykg&utm_campaign=yelp_api_v3&utm_medium=api_v3_business_search&utm_source=rZiFgfUX1eajVOVygdFykg", "review_count": 30, "categories": [{"alias": "bbq", "title": "Barbeque"}, {"alias": "sandwiches", "title": "Sandwiches"}, {"alias": "seafood", "title": "Seafood"}], "rating": 3.0, "coordinates": {"latitude": 29.60082, "longitude": -95.50795633119506}, "transactions": ["delivery", "pickup"], "price": "$", "location": {"address1": "15502 Fondren Rd", "address2": "", "address3": "", "city": "Missouri City", "zip_code": "77489", "country": "US", "state": "TX", "display_address": ["15502 Fondren Rd", "Missouri City, TX 77489"]}, "phone": "+12814313777", "display_phone": "(281) 431-3777", "distance": 7937.717998074808}, {"id": "0TZeXZu5qdmJmBnIYtReYg", "alias": "tangs-kitchen-pearland", "name": "Tang's Kitchen", "image_url": "https://s3-media3.fl.yelpcdn.com/bphoto/AQNqGgFYw4IqQ3vsfICEIQ/o.jpg", "is_closed": false, "url": "https://www.yelp.com/biz/tangs-kitchen-pearland?adjust_creative=rZiFgfUX1eajVOVygdFykg&utm_campaign=yelp_api_v3&utm_medium=api_v3_business_search&utm_source=rZiFgfUX1eajVOVygdFykg", "review_count": 213, "categories": [{"alias": "chinese", "title": "Chinese"}], "rating": 3.5, "coordinates": {"latitude": 29.556222, "longitude": -95.416757}, "transactions": ["delivery", "pickup"], "price": "$$", "location": {"address1": "2975 Kingsley Dr", "address2": "Ste 139", "address3": "", "city": "Pearland", "zip_code": "77584", "country": "US", "state": "TX", "display_address": ["2975 Kingsley Dr", "Ste 139", "Pearland, TX 77584"]}, "phone": "+17133403188", "display_phone": "(713) 340-3188", "distance": 5534.371449507693}, {"id": "CmNcA_5fNMtvRYz2t_w1vg", "alias": "wingstop-missouri-city", "name": "Wingstop", "image_url": "https://s3-media1.fl.yelpcdn.com/bphoto/0fZW3O3_RhsGQaDGIwt9bQ/o.jpg", "is_closed": false, "url": "https://www.yelp.com/biz/wingstop-missouri-city?adjust_creative=rZiFgfUX1eajVOVygdFykg&utm_campaign=yelp_api_v3&utm_medium=api_v3_business_search&utm_source=rZiFgfUX1eajVOVygdFykg", "review_count": 34, "categories": [{"alias": "chicken_wings", "title": "Chicken Wings"}], "rating": 3.0, "coordinates": {"latitude": 29.594817328351336, "longitude": -95.52729113680533}, "transactions": [], "price": "$$", "location": {"address1": "2240 Texas Pkwy", "address2": "Ste 100", "address3": "", "city": "Missouri City", "zip_code": "77489", "country": "US", "state": "TX", "display_address": ["2240 Texas Pkwy", "Ste 100", "Missouri City, TX 77489"]}, "phone": "+12814039464", "display_phone": "(281) 403-9464", "distance": 8447.646969020338}, {"id": "UAxQoum4464KhLLgfbarxA", "alias": "pizza-parlor-pearland", "name": "Pizza Parlor", "image_url": "https://s3-media3.fl.yelpcdn.com/bphoto/dQcLzJHy9ubEUBNxKmUH4g/o.jpg", "is_closed": false, "url": "https://www.yelp.com/biz/pizza-parlor-pearland?adjust_creative=rZiFgfUX1eajVOVygdFykg&utm_campaign=yelp_api_v3&utm_medium=api_v3_business_search&utm_source=rZiFgfUX1eajVOVygdFykg", "review_count": 111, "categories": [{"alias": "pizza", "title": "Pizza"}, {"alias": "chicken_wings", "title": "Chicken Wings"}, {"alias": "sandwiches", "title": "Sandwiches"}], "rating": 3.5, "coordinates": {"latitude": 29.556720458243962, "longitude": -95.39237298291387}, "transactions": ["delivery", "pickup"], "price": "$", "location": {"address1": "2810 Business Center Dr", "address2": "Ste 128", "address3": "", "city": "Pearland", "zip_code": "77584", "country": "US", "state": "TX", "display_address": ["2810 Business Center Dr", "Ste 128", "Pearland, TX 77584"]}, "phone": "+17133403025", "display_phone": "(713) 340-3025", "distance": 7787.139249066606}, {"id": "6-BO3L188E4dsocWNTWwRQ", "alias": "more-rush-arcola", "name": "More Rush", "image_url": "https://s3-media2.fl.yelpcdn.com/bphoto/zTgfkNlQyrn0Pwl-nAIGjQ/o.jpg", "is_closed": false, "url": "https://www.yelp.com/biz/more-rush-arcola?adjust_creative=rZiFgfUX1eajVOVygdFykg&utm_campaign=yelp_api_v3&utm_medium=api_v3_business_search&utm_source=rZiFgfUX1eajVOVygdFykg", "review_count": 7, "categories": [{"alias": "soulfood", "title": "Soul Food"}], "rating": 3.0, "coordinates": {"latitude": 29.5078848, "longitude": -95.4608746}, "transactions": ["delivery", "pickup"], "location": {"address1": "5243 Fm 521 Rd", "address2": "", "address3": null, "city": "Arcola", "zip_code": "77583", "country": "US", "state": "TX", "display_address": ["5243 Fm 521 Rd", "Arcola, TX 77583"]}, "phone": "+12813468300", "display_phone": "(281) 346-8300", "distance": 3468.9899089348473}, {"id": "hVL13MBVBGVinUz9-jMhiA", "alias": "la-crawfish-pearland", "name": "LA Crawfish", "image_url": "https://s3-media3.fl.yelpcdn.com/bphoto/raM_pjw-qQWyz24UDBtOHA/o.jpg", "is_closed": false, "url": "https://www.yelp.com/biz/la-crawfish-pearland?adjust_creative=rZiFgfUX1eajVOVygdFykg&utm_campaign=yelp_api_v3&utm_medium=api_v3_business_search&utm_source=rZiFgfUX1eajVOVygdFykg", "review_count": 171, "categories": [{"alias": "vietnamese", "title": "Vietnamese"}, {"alias": "cajun", "title": "Cajun/Creole"}, {"alias": "seafood", "title": "Seafood"}], "rating": 3.0, "coordinates": {"latitude": 29.5775460630826, "longitude": -95.3850515931845}, "transactions": ["delivery"], "price": "$$", "location": {"address1": "1910 Country Place Pkwy", "address2": "Ste 150", "address3": "", "city": "Pearland", "zip_code": "77584", "country": "US", "state": "TX", "display_address": ["1910 Country Place Pkwy", "Ste 150", "Pearland, TX 77584"]}, "phone": "+18327814946", "display_phone": "(832) 781-4946", "distance": 9324.333971707469}, {"id": "9F-1bWxBvPZypU9D4D3daA", "alias": "spice-buddy-pearland", "name": "Spice Buddy", "image_url": "https://s3-media4.fl.yelpcdn.com/bphoto/sGVSqmKQEYxzbzRKFLrznA/o.jpg", "is_closed": false, "url": "https://www.yelp.com/biz/spice-buddy-pearland?adjust_creative=rZiFgfUX1eajVOVygdFykg&utm_campaign=yelp_api_v3&utm_medium=api_v3_business_search&utm_source=rZiFgfUX1eajVOVygdFykg", "review_count": 8, "categories": [{"alias": "tradamerican", "title": "American (Traditional)"}, {"alias": "sportsbars", "title": "Sports Bars"}], "rating": 4.5, "coordinates": {"latitude": 29.557281, "longitude": -95.369225}, "transactions": [], "location": {"address1": "9603 Broadway St", "address2": "Ste 105", "address3": null, "city": "Pearland", "zip_code": "77584", "country": "US", "state": "TX", "display_address": ["9603 Broadway St", "Ste 105", "Pearland, TX 77584"]}, "phone": "", "display_phone": "", "distance": 9975.0273509198}, {"id": "wdcKiv_6qw6le3LDRivdgw", "alias": "reds-snow-wagon-and-more-houston", "name": "Red's Snow Wagon & More", "image_url": "https://s3-media4.fl.yelpcdn.com/bphoto/yfp5wU2wgeWzM_91QTJZKw/o.jpg", "is_closed": false, "url": "https://www.yelp.com/biz/reds-snow-wagon-and-more-houston?adjust_creative=rZiFgfUX1eajVOVygdFykg&utm_campaign=yelp_api_v3&utm_medium=api_v3_business_search&utm_source=rZiFgfUX1eajVOVygdFykg", "review_count": 161, "categories": [{"alias": "foodstands", "title": "Food Stands"}, {"alias": "tradamerican", "title": "American (Traditional)"}, {"alias": "shavedice", "title": "Shaved Ice"}], "rating": 4.0, "coordinates": {"latitude": 29.614142, "longitude": -95.402754}, "transactions": ["delivery"], "price": "$", "location": {"address1": "1309 Almeda-Genoa Rd", "address2": "", "address3": "", "city": "Houston", "zip_code": "77047", "country": "US", "state": "TX", "display_address": ["1309 Almeda-Genoa Rd", "Houston, TX 77047"]}, "phone": "+17134330164", "display_phone": "(713) 433-0164", "distance": 10699.668237226704}, {"id": "qF26yYouskRz_kps1TAAgw", "alias": "szechuan-spice-pearland", "name": "Szechuan Spice", "image_url": "https://s3-media2.fl.yelpcdn.com/bphoto/vOloRsZWQTxLcROQ9umpyg/o.jpg", "is_closed": false, "url": "https://www.yelp.com/biz/szechuan-spice-pearland?adjust_creative=rZiFgfUX1eajVOVygdFykg&utm_campaign=yelp_api_v3&utm_medium=api_v3_business_search&utm_source=rZiFgfUX1eajVOVygdFykg", "review_count": 238, "categories": [{"alias": "szechuan", "title": "Szechuan"}], "rating": 4.0, "coordinates": {"latitude": 29.546256, "longitude": -95.390306}, "transactions": ["delivery", "pickup"], "price": "$$", "location": {"address1": "3422 Business Ctr Dr", "address2": "Ste 102", "address3": "", "city": "Pearland", "zip_code": "77584", "country": "US", "state": "TX", "display_address": ["3422 Business Ctr Dr", "Ste 102", "Pearland, TX 77584"]}, "phone": "+12817414008", "display_phone": "(281) 741-4008", "distance": 7751.77469719317}, {"id": "EhiYaLv67OPw-WzdxlEUeA", "alias": "dona-leti-s-houston", "name": "Dona Leti\u2019s", "image_url": "https://s3-media2.fl.yelpcdn.com/bphoto/G58GaU2CISXjmXfEG3T9Tw/o.jpg", "is_closed": false, "url": "https://www.yelp.com/biz/dona-leti-s-houston?adjust_creative=rZiFgfUX1eajVOVygdFykg&utm_campaign=yelp_api_v3&utm_medium=api_v3_business_search&utm_source=rZiFgfUX1eajVOVygdFykg", "review_count": 210, "categories": [{"alias": "cocktailbars", "title": "Cocktail Bars"}, {"alias": "tacos", "title": "Tacos"}], "rating": 3.5, "coordinates": {"latitude": 29.592109, "longitude": -95.46824}, "transactions": ["delivery", "pickup"], "price": "$$", "location": {"address1": "16101 S Post Oak Rd", "address2": null, "address3": "", "city": "Houston", "zip_code": "77053", "country": "US", "state": "TX", "display_address": ["16101 S Post Oak Rd", "Houston, TX 77053"]}, "phone": "+18328583917", "display_phone": "(832) 858-3917", "distance": 6062.007533936984}, {"id": "mH6QpslL8jADy5yCePUf7Q", "alias": "bs-wine-bar-missouri-city", "name": "B's Wine Bar", "image_url": "https://s3-media2.fl.yelpcdn.com/bphoto/X6911ebdEXqnN1VignKh2A/o.jpg", "is_closed": false, "url": "https://www.yelp.com/biz/bs-wine-bar-missouri-city?adjust_creative=rZiFgfUX1eajVOVygdFykg&utm_campaign=yelp_api_v3&utm_medium=api_v3_business_search&utm_source=rZiFgfUX1eajVOVygdFykg", "review_count": 132, "categories": [{"alias": "wine_bars", "title": "Wine Bars"}, {"alias": "newamerican", "title": "American (New)"}], "rating": 4.0, "coordinates": {"latitude": 29.539019, "longitude": -95.539433}, "transactions": [], "price": "$$", "location": {"address1": "8770 Hwy 6", "address2": "Ste 300", "address3": null, "city": "Missouri City", "zip_code": "77459", "country": "US", "state": "TX", "display_address": ["8770 Hwy 6", "Ste 300", "Missouri City, TX 77459"]}, "phone": "+15419463227", "display_phone": "(541) 946-3227", "distance": 6736.534501798798}, {"id": "9dqWCPy9bExAz-Zjzwbw7A", "alias": "popeyes-louisiana-kitchen-missouri-city-3", "name": "Popeyes Louisiana Kitchen", "image_url": "https://s3-media2.fl.yelpcdn.com/bphoto/epo8oMQtl9bwz854PwpvXA/o.jpg", "is_closed": false, "url": "https://www.yelp.com/biz/popeyes-louisiana-kitchen-missouri-city-3?adjust_creative=rZiFgfUX1eajVOVygdFykg&utm_campaign=yelp_api_v3&utm_medium=api_v3_business_search&utm_source=rZiFgfUX1eajVOVygdFykg", "review_count": 29, "categories": [{"alias": "hotdogs", "title": "Fast Food"}, {"alias": "chicken_wings", "title": "Chicken Wings"}], "rating": 2.0, "coordinates": {"latitude": 29.5315682705997, "longitude": -95.511155}, "transactions": ["delivery", "pickup"], "price": "$", "location": {"address1": "10220 Hwy 6", "address2": "", "address3": "", "city": "Missouri City", "zip_code": "77459", "country": "US", "state": "TX", "display_address": ["10220 Hwy 6", "Missouri City, TX 77459"]}, "phone": "+12814315482", "display_phone": "(281) 431-5482", "distance": 4055.198157873503}, {"id": "rEBBBYSAQXeKOXGxJj64dQ", "alias": "wingstop-houston-67", "name": "Wingstop", "image_url": "https://s3-media4.fl.yelpcdn.com/bphoto/0KARLYs4Zz3KBwEjGpEkSg/o.jpg", "is_closed": false, "url": "https://www.yelp.com/biz/wingstop-houston-67?adjust_creative=rZiFgfUX1eajVOVygdFykg&utm_campaign=yelp_api_v3&utm_medium=api_v3_business_search&utm_source=rZiFgfUX1eajVOVygdFykg", "review_count": 14, "categories": [{"alias": "chicken_wings", "title": "Chicken Wings"}], "rating": 2.5, "coordinates": {"latitude": 29.59301809996874, "longitude": -95.467748}, "transactions": [], "location": {"address1": "15999 S Post Oak Rd", "address2": "", "address3": null, "city": "Houston", "zip_code": "77053", "country": "US", "state": "TX", "display_address": ["15999 S Post Oak Rd", "Houston, TX 77053"]}, "phone": "+12817677024", "display_phone": "(281) 767-7024", "distance": 6164.425179054014}, {"id": "5Qtw3VuK0bwXfCP1N3l1iw", "alias": "the-greasy-spoon-soulfood-bistro-pearland", "name": "The Greasy Spoon Soulfood Bistro", "image_url": "https://s3-media2.fl.yelpcdn.com/bphoto/Je5nuCTruE_MghQ5KU4IsA/o.jpg", "is_closed": false, "url": "https://www.yelp.com/biz/the-greasy-spoon-soulfood-bistro-pearland?adjust_creative=rZiFgfUX1eajVOVygdFykg&utm_campaign=yelp_api_v3&utm_medium=api_v3_business_search&utm_source=rZiFgfUX1eajVOVygdFykg", "review_count": 143, "categories": [{"alias": "soulfood", "title": "Soul Food"}], "rating": 3.5, "coordinates": {"latitude": 29.55625, "longitude": -95.37529}, "transactions": ["delivery", "pickup"], "price": "$$", "location": {"address1": "10009 Broadway St", "address2": "Ste 101", "address3": null, "city": "Pearland", "zip_code": "77584", "country": "US", "state": "TX", "display_address": ["10009 Broadway St", "Ste 101", "Pearland, TX 77584"]}, "phone": "+12817817116", "display_phone": "(281) 781-7116", "distance": 9425.60046538506}, {"id": "ORcbuR_dK5CFqynyoSqXcA", "alias": "jimmy-changas-pearland-pearland-4", "name": "Jimmy Changas - Pearland", "image_url": "https://s3-media1.fl.yelpcdn.com/bphoto/-ym8j32f6bMI42CQeY48AA/o.jpg", "is_closed": false, "url": "https://www.yelp.com/biz/jimmy-changas-pearland-pearland-4?adjust_creative=rZiFgfUX1eajVOVygdFykg&utm_campaign=yelp_api_v3&utm_medium=api_v3_business_search&utm_source=rZiFgfUX1eajVOVygdFykg", "review_count": 336, "categories": [{"alias": "mexican", "title": "Mexican"}, {"alias": "salad", "title": "Salad"}, {"alias": "soup", "title": "Soup"}], "rating": 4.0, "coordinates": {"latitude": 29.5445396, "longitude": -95.3896028}, "transactions": ["delivery"], "price": "$$", "location": {"address1": "3515 Business Center Dr", "address2": "", "address3": null, "city": "Pearland", "zip_code": "77584", "country": "US", "state": "TX", "display_address": ["3515 Business Center Dr", "Pearland, TX 77584"]}, "phone": "+12816177812", "display_phone": "(281) 617-7812", "distance": 7798.179102533111}, {"id": "dnl4X824IA8HjSvkDqu5ig", "alias": "pizza-inn-arcola", "name": "Pizza Inn", "image_url": "https://s3-media1.fl.yelpcdn.com/bphoto/ZUyEu5Rw7TlQEDrYzopfMg/o.jpg", "is_closed": false, "url": "https://www.yelp.com/biz/pizza-inn-arcola?adjust_creative=rZiFgfUX1eajVOVygdFykg&utm_campaign=yelp_api_v3&utm_medium=api_v3_business_search&utm_source=rZiFgfUX1eajVOVygdFykg", "review_count": 19, "categories": [{"alias": "pizza", "title": "Pizza"}, {"alias": "italian", "title": "Italian"}, {"alias": "buffets", "title": "Buffets"}], "rating": 3.5, "coordinates": {"latitude": 29.483528, "longitude": -95.469977}, "transactions": ["delivery", "pickup"], "location": {"address1": "6911 Fm 521 Rd", "address2": "", "address3": null, "city": "Arcola", "zip_code": "77583", "country": "US", "state": "TX", "display_address": ["6911 Fm 521 Rd", "Arcola, TX 77583"]}, "phone": "+12819729498", "display_phone": "(281) 972-9498", "distance": 6011.582089081516}, {"id": "X0Bg1CrevVNRDMgv_T8iFg", "alias": "ems-seafood-kitchen-manvel-2", "name": "Em's Seafood Kitchen", "image_url": "https://s3-media1.fl.yelpcdn.com/bphoto/6ZpCQnFyUpbKE4LdvY3KWw/o.jpg", "is_closed": false, "url": "https://www.yelp.com/biz/ems-seafood-kitchen-manvel-2?adjust_creative=rZiFgfUX1eajVOVygdFykg&utm_campaign=yelp_api_v3&utm_medium=api_v3_business_search&utm_source=rZiFgfUX1eajVOVygdFykg", "review_count": 227, "categories": [{"alias": "cajun", "title": "Cajun/Creole"}, {"alias": "seafood", "title": "Seafood"}], "rating": 3.5, "coordinates": {"latitude": 29.5407128, "longitude": -95.3997225}, "transactions": ["delivery", "pickup"], "price": "$$", "location": {"address1": "11540 Magnolia Pkwy", "address2": "Ste A", "address3": null, "city": "Manvel", "zip_code": "77578", "country": "US", "state": "TX", "display_address": ["11540 Magnolia Pkwy", "Ste A", "Manvel, TX 77578"]}, "phone": "+12818298173", "display_phone": "(281) 829-8173", "distance": 6789.936032731342}, {"id": "seLlSwOu94vxUaz6lrgF8Q", "alias": "pizza-hut-fresno-10", "name": "Pizza Hut", "image_url": "https://s3-media4.fl.yelpcdn.com/bphoto/577x2kO591nZyBGxSQP5_Q/o.jpg", "is_closed": false, "url": "https://www.yelp.com/biz/pizza-hut-fresno-10?adjust_creative=rZiFgfUX1eajVOVygdFykg&utm_campaign=yelp_api_v3&utm_medium=api_v3_business_search&utm_source=rZiFgfUX1eajVOVygdFykg", "review_count": 41, "categories": [{"alias": "pizza", "title": "Pizza"}, {"alias": "chicken_wings", "title": "Chicken Wings"}, {"alias": "hotdogs", "title": "Fast Food"}], "rating": 1.5, "coordinates": {"latitude": 29.518908, "longitude": -95.481294}, "transactions": ["delivery", "pickup"], "price": "$", "location": {"address1": "12207 State Hwy 6", "address2": "Ste F", "address3": "", "city": "Fresno", "zip_code": "77545", "country": "US", "state": "TX", "display_address": ["12207 State Hwy 6", "Ste F", "Fresno, TX 77545"]}, "phone": "+12814319602", "display_phone": "(281) 431-9602", "distance": 2360.397716518769}, {"id": "NoCp5WmcDXc84G5OyxampQ", "alias": "800-degrees-pizza-missouri-city", "name": "800 Degrees Pizza", "image_url": "https://s3-media3.fl.yelpcdn.com/bphoto/CumEPnxzSNMkfZdFpQY-8g/o.jpg", "is_closed": false, "url": "https://www.yelp.com/biz/800-degrees-pizza-missouri-city?adjust_creative=rZiFgfUX1eajVOVygdFykg&utm_campaign=yelp_api_v3&utm_medium=api_v3_business_search&utm_source=rZiFgfUX1eajVOVygdFykg", "review_count": 2, "categories": [{"alias": "chicken_wings", "title": "Chicken Wings"}, {"alias": "pizza", "title": "Pizza"}], "rating": 1.0, "coordinates": {"latitude": 29.56462, "longitude": -95.56397}, "transactions": [], "location": {"address1": "6154 Hwy 6", "address2": "", "address3": null, "city": "Missouri City", "zip_code": "77459", "country": "US", "state": "TX", "display_address": ["6154 Hwy 6", "Missouri City, TX 77459"]}, "phone": "", "display_phone": "", "distance": 9737.869247133374}, {"id": "NWh-HJiX-AGwV7D9w_Cefw", "alias": "7spice-pearland", "name": "7Spice", "image_url": "https://s3-media4.fl.yelpcdn.com/bphoto/D2OV4njiYfLtO30vScvQvg/o.jpg", "is_closed": false, "url": "https://www.yelp.com/biz/7spice-pearland?adjust_creative=rZiFgfUX1eajVOVygdFykg&utm_campaign=yelp_api_v3&utm_medium=api_v3_business_search&utm_source=rZiFgfUX1eajVOVygdFykg", "review_count": 159, "categories": [{"alias": "cajun", "title": "Cajun/Creole"}, {"alias": "seafood", "title": "Seafood"}], "rating": 3.0, "coordinates": {"latitude": 29.5844695297598, "longitude": -95.3876157850027}, "transactions": ["delivery"], "price": "$$", "location": {"address1": "11011 Shadow Creek Pkwy", "address2": "Ste 113", "address3": null, "city": "Pearland", "zip_code": "77584", "country": "US", "state": "TX", "display_address": ["11011 Shadow Creek Pkwy", "Ste 113", "Pearland, TX 77584"]}, "phone": "+12814127742", "display_phone": "(281) 412-7742", "distance": 9505.974079380094}, {"id": "fMklXrhYgNY_d3g7HJj-iw", "alias": "pepperonis-sienna-missouri-city", "name": "Pepperoni's - Sienna", "image_url": "https://s3-media2.fl.yelpcdn.com/bphoto/LVN8Ru0rFxkt1IkISRNEUw/o.jpg", "is_closed": false, "url": "https://www.yelp.com/biz/pepperonis-sienna-missouri-city?adjust_creative=rZiFgfUX1eajVOVygdFykg&utm_campaign=yelp_api_v3&utm_medium=api_v3_business_search&utm_source=rZiFgfUX1eajVOVygdFykg", "review_count": 92, "categories": [{"alias": "pizza", "title": "Pizza"}], "rating": 3.5, "coordinates": {"latitude": 29.5096709579229, "longitude": -95.5260170996189}, "transactions": ["delivery", "pickup"], "price": "$$", "location": {"address1": "4303 Sienna Circle", "address2": "", "address3": "", "city": "Missouri City", "zip_code": "77459", "country": "US", "state": "TX", "display_address": ["4303 Sienna Circle", "Missouri City, TX 77459"]}, "phone": "+12817787888", "display_phone": "(281) 778-7888", "distance": 6254.953785206621}, {"id": "2M4SvSaQdvrcOsmoDs5K-g", "alias": "fleur-de-licious-catering-missouri-city-2", "name": "Fleur de Licious Catering", "image_url": "https://s3-media1.fl.yelpcdn.com/bphoto/ChIe8epMc3si33Tt9agWRQ/o.jpg", "is_closed": false, "url": "https://www.yelp.com/biz/fleur-de-licious-catering-missouri-city-2?adjust_creative=rZiFgfUX1eajVOVygdFykg&utm_campaign=yelp_api_v3&utm_medium=api_v3_business_search&utm_source=rZiFgfUX1eajVOVygdFykg", "review_count": 13, "categories": [{"alias": "catering", "title": "Caterers"}], "rating": 5.0, "coordinates": {"latitude": 29.60487, "longitude": -95.52602}, "transactions": ["delivery", "pickup"], "location": {"address1": "1536 Kenforest Dr", "address2": null, "address3": "", "city": "Missouri City", "zip_code": "77489", "country": "US", "state": "TX", "display_address": ["1536 Kenforest Dr", "Missouri City, TX 77489"]}, "phone": "+13463421548", "display_phone": "(346) 342-1548", "distance": 9253.827889337339}, {"id": "9CzE1xrY6xQAk0LVKzZtVQ", "alias": "tina-b-s-brunch-express-houston", "name": "Tina B\u2019s Brunch Express", "image_url": "https://s3-media3.fl.yelpcdn.com/bphoto/THhinZcOGYi-eWDdATLHOg/o.jpg", "is_closed": false, "url": "https://www.yelp.com/biz/tina-b-s-brunch-express-houston?adjust_creative=rZiFgfUX1eajVOVygdFykg&utm_campaign=yelp_api_v3&utm_medium=api_v3_business_search&utm_source=rZiFgfUX1eajVOVygdFykg", "review_count": 1, "categories": [{"alias": "foodtrucks", "title": "Food Trucks"}], "rating": 1.0, "coordinates": {"latitude": 29.58996, "longitude": -95.46473}, "transactions": [], "location": {"address1": null, "address2": null, "address3": null, "city": "Houston", "zip_code": "77053", "country": "US", "state": "TX", "display_address": ["Houston, TX 77053"]}, "phone": "+13463944907", "display_phone": "(346) 394-4907", "distance": 3877.7953088082286}, {"id": "F6VdDoSjC9epcwA2dSyfag", "alias": "off-the-bone-barbque-houston", "name": "Off The Bone Barbque", "image_url": "https://s3-media3.fl.yelpcdn.com/bphoto/3fPIbULd5Kl2CPXIWmJJeg/o.jpg", "is_closed": false, "url": "https://www.yelp.com/biz/off-the-bone-barbque-houston?adjust_creative=rZiFgfUX1eajVOVygdFykg&utm_campaign=yelp_api_v3&utm_medium=api_v3_business_search&utm_source=rZiFgfUX1eajVOVygdFykg", "review_count": 1, "categories": [{"alias": "foodtrucks", "title": "Food Trucks"}], "rating": 1.0, "coordinates": {"latitude": 29.58996, "longitude": -95.46473}, "transactions": [], "location": {"address1": null, "address2": null, "address3": null, "city": "Houston", "zip_code": "77053", "country": "US", "state": "TX", "display_address": ["Houston, TX 77053"]}, "phone": "+18328419885", "display_phone": "(832) 841-9885", "distance": 3877.7953088082286}, {"id": "dI0pkCZXPwgS5rPiId7FVw", "alias": "charlies-catering-stafford", "name": "Charlie's Catering", "image_url": "https://s3-media1.fl.yelpcdn.com/bphoto/pNc8o7CCCEmPhE4k3JP_CQ/o.jpg", "is_closed": false, "url": "https://www.yelp.com/biz/charlies-catering-stafford?adjust_creative=rZiFgfUX1eajVOVygdFykg&utm_campaign=yelp_api_v3&utm_medium=api_v3_business_search&utm_source=rZiFgfUX1eajVOVygdFykg", "review_count": 5, "categories": [{"alias": "catering", "title": "Caterers"}], "rating": 4.0, "coordinates": {"latitude": 29.609581, "longitude": -95.5286789}, "transactions": ["delivery"], "location": {"address1": "1250 Fm 2234 Rd", "address2": "Ste J", "address3": "", "city": "Stafford", "zip_code": "77477", "country": "US", "state": "TX", "display_address": ["1250 Fm 2234 Rd", "Ste J", "Stafford, TX 77477"]}, "phone": "+12814992233", "display_phone": "(281) 499-2233", "distance": 9820.839825933026}, {"id": "sATCrGl32U32fc4iUN3biA", "alias": "daiquiri-island-to-go-rosharon", "name": "Daiquiri Island To Go", "image_url": "https://s3-media1.fl.yelpcdn.com/bphoto/A6xn3hQPVezcIwek9Zw1lA/o.jpg", "is_closed": false, "url": "https://www.yelp.com/biz/daiquiri-island-to-go-rosharon?adjust_creative=rZiFgfUX1eajVOVygdFykg&utm_campaign=yelp_api_v3&utm_medium=api_v3_business_search&utm_source=rZiFgfUX1eajVOVygdFykg", "review_count": 2, "categories": [{"alias": "cocktailbars", "title": "Cocktail Bars"}], "rating": 3.0, "coordinates": {"latitude": 29.497527634202516, "longitude": -95.44016222049748}, "transactions": ["delivery", "pickup"], "location": {"address1": "15003 Hwy 6", "address2": "", "address3": null, "city": "Rosharon", "zip_code": "77583", "country": "US", "state": "TX", "display_address": ["15003 Hwy 6", "Rosharon, TX 77583"]}, "phone": "+12817104574", "display_phone": "(281) 710-4574", "distance": 5300.767022720835}, {"id": "L575zJqy4E22inT7jSzZQA", "alias": "bayou-kitchen-crawfish-kings-houston-3", "name": "Bayou Kitchen Crawfish Kings", "image_url": "https://s3-media3.fl.yelpcdn.com/bphoto/wRE8-tVkUfIHk32b9tjJng/o.jpg", "is_closed": false, "url": "https://www.yelp.com/biz/bayou-kitchen-crawfish-kings-houston-3?adjust_creative=rZiFgfUX1eajVOVygdFykg&utm_campaign=yelp_api_v3&utm_medium=api_v3_business_search&utm_source=rZiFgfUX1eajVOVygdFykg", "review_count": 50, "categories": [{"alias": "foodtrucks", "title": "Food Trucks"}, {"alias": "cajun", "title": "Cajun/Creole"}, {"alias": "seafood", "title": "Seafood"}], "rating": 4.0, "coordinates": {"latitude": 29.6021897, "longitude": -95.4640406}, "transactions": ["delivery", "pickup"], "price": "$$", "location": {"address1": "15495 S Post Oak", "address2": null, "address3": "", "city": "Houston", "zip_code": "77053", "country": "US", "state": "TX", "display_address": ["15495 S Post Oak", "Houston, TX 77053"]}, "phone": "+18325676188", "display_phone": "(832) 567-6188", "distance": 7202.712863007206}, {"id": "EgiH10IU6zaEWXLKp6cvrA", "alias": "hana-missouri-city-2", "name": "Hana", "image_url": "https://s3-media2.fl.yelpcdn.com/bphoto/BEEuujMjbQ6Kx4Bd30V2IA/o.jpg", "is_closed": false, "url": "https://www.yelp.com/biz/hana-missouri-city-2?adjust_creative=rZiFgfUX1eajVOVygdFykg&utm_campaign=yelp_api_v3&utm_medium=api_v3_business_search&utm_source=rZiFgfUX1eajVOVygdFykg", "review_count": 118, "categories": [{"alias": "japanese", "title": "Japanese"}, {"alias": "chinese", "title": "Chinese"}, {"alias": "sushi", "title": "Sushi Bars"}], "rating": 4.0, "coordinates": {"latitude": 29.5642799, "longitude": -95.5633608}, "transactions": ["delivery"], "price": "$$", "location": {"address1": "6210 Hwy 6 S", "address2": "Ste B", "address3": "", "city": "Missouri City", "zip_code": "77459", "country": "US", "state": "TX", "display_address": ["6210 Hwy 6 S", "Ste B", "Missouri City, TX 77459"]}, "phone": "+18325396164", "display_phone": "(832) 539-6164", "distance": 9522.014010266874}, {"id": "sNGgxgGZyqngpo-Jqigwwg", "alias": "bourbon-street-poboyz-missouri-city", "name": "Bourbon Street Poboyz", "image_url": "https://s3-media1.fl.yelpcdn.com/bphoto/GjOSmuB-zIUhtA13DsaJSQ/o.jpg", "is_closed": false, "url": "https://www.yelp.com/biz/bourbon-street-poboyz-missouri-city?adjust_creative=rZiFgfUX1eajVOVygdFykg&utm_campaign=yelp_api_v3&utm_medium=api_v3_business_search&utm_source=rZiFgfUX1eajVOVygdFykg", "review_count": 15, "categories": [{"alias": "cajun", "title": "Cajun/Creole"}], "rating": 5.0, "coordinates": {"latitude": 29.5796762, "longitude": -95.5218599}, "transactions": [], "location": {"address1": "1306 Turtle Creek Dr", "address2": null, "address3": null, "city": "Missouri City", "zip_code": "77489", "country": "US", "state": "TX", "display_address": ["1306 Turtle Creek Dr", "Missouri City, TX 77489"]}, "phone": "", "display_phone": "", "distance": 6871.508458386181}, {"id": "DCu5PsKf5RjORI1DdQEP-A", "alias": "the-monks-pearland", "name": "The Monk's", "image_url": "https://s3-media3.fl.yelpcdn.com/bphoto/82WwfRG0y87XnRp0Id6sOQ/o.jpg", "is_closed": false, "url": "https://www.yelp.com/biz/the-monks-pearland?adjust_creative=rZiFgfUX1eajVOVygdFykg&utm_campaign=yelp_api_v3&utm_medium=api_v3_business_search&utm_source=rZiFgfUX1eajVOVygdFykg", "review_count": 52, "categories": [{"alias": "chinese", "title": "Chinese"}, {"alias": "desserts", "title": "Desserts"}, {"alias": "indpak", "title": "Indian"}], "rating": 4.0, "coordinates": {"latitude": 29.55089408741464, "longitude": -95.38641840004516}, "transactions": ["delivery", "pickup"], "location": {"address1": "3145 Silverlake Village Dr", "address2": "Ste 112", "address3": null, "city": "Pearland", "zip_code": "77584", "country": "US", "state": "TX", "display_address": ["3145 Silverlake Village Dr", "Ste 112", "Pearland, TX 77584"]}, "phone": "+12814068785", "display_phone": "(281) 406-8785", "distance": 8201.935633726636}, {"id": "CgTJ_RZErkJAgSFBRjNWfQ", "alias": "pardi-s-houston-4", "name": "Pardi\u2019s ", "image_url": "https://s3-media1.fl.yelpcdn.com/bphoto/3vJzSc6AIdG_vNcwNKdI7Q/o.jpg", "is_closed": false, "url": "https://www.yelp.com/biz/pardi-s-houston-4?adjust_creative=rZiFgfUX1eajVOVygdFykg&utm_campaign=yelp_api_v3&utm_medium=api_v3_business_search&utm_source=rZiFgfUX1eajVOVygdFykg", "review_count": 25, "categories": [{"alias": "cajun", "title": "Cajun/Creole"}, {"alias": "seafood", "title": "Seafood"}, {"alias": "foodtrucks", "title": "Food Trucks"}], "rating": 4.5, "coordinates": {"latitude": 29.61413, "longitude": -95.40405}, "transactions": ["delivery", "pickup"], "location": {"address1": "1205 Almeda Genoa Rd", "address2": null, "address3": "", "city": "Houston", "zip_code": "77047", "country": "US", "state": "TX", "display_address": ["1205 Almeda Genoa Rd", "Houston, TX 77047"]}, "phone": "+13462698901", "display_phone": "(346) 269-8901", "distance": 10628.531726069286}, {"id": "SgGQNV0tss51tuO21WIAJA", "alias": "brooklyn-pizzeria-missouri-city-2", "name": "Brooklyn Pizzeria", "image_url": "https://s3-media1.fl.yelpcdn.com/bphoto/ijTFiX27Ws4yPs8mUSAa6A/o.jpg", "is_closed": false, "url": "https://www.yelp.com/biz/brooklyn-pizzeria-missouri-city-2?adjust_creative=rZiFgfUX1eajVOVygdFykg&utm_campaign=yelp_api_v3&utm_medium=api_v3_business_search&utm_source=rZiFgfUX1eajVOVygdFykg", "review_count": 65, "categories": [{"alias": "pizza", "title": "Pizza"}], "rating": 3.0, "coordinates": {"latitude": 29.5381022617154, "longitude": -95.5291532725096}, "transactions": ["delivery"], "location": {"address1": "9309 Hwy 6", "address2": "", "address3": null, "city": "Missouri City", "zip_code": "77459", "country": "US", "state": "TX", "display_address": ["9309 Hwy 6", "Missouri City, TX 77459"]}, "phone": "+13463424100", "display_phone": "(346) 342-4100", "distance": 5740.512841412044}, {"id": "DWuimZ8UBe0Ci7_g4F7WEw", "alias": "sonic-drive-in-fresno-3", "name": "Sonic Drive-In", "image_url": "https://s3-media1.fl.yelpcdn.com/bphoto/oj0u64N-VSsuaKMTfl8IXw/o.jpg", "is_closed": false, "url": "https://www.yelp.com/biz/sonic-drive-in-fresno-3?adjust_creative=rZiFgfUX1eajVOVygdFykg&utm_campaign=yelp_api_v3&utm_medium=api_v3_business_search&utm_source=rZiFgfUX1eajVOVygdFykg", "review_count": 3, "categories": [{"alias": "icecream", "title": "Ice Cream & Frozen Yogurt"}, {"alias": "hotdogs", "title": "Fast Food"}, {"alias": "burgers", "title": "Burgers"}], "rating": 1.0, "coordinates": {"latitude": 29.547296, "longitude": -95.444811}, "transactions": ["delivery", "pickup"], "location": {"address1": "2723 Fm 521 Rd", "address2": null, "address3": null, "city": "Fresno", "zip_code": "77545", "country": "US", "state": "TX", "display_address": ["2723 Fm 521 Rd", "Fresno, TX 77545"]}, "phone": "+12817104773", "display_phone": "(281) 710-4773", "distance": 2646.7071444228895}, {"id": "ryR3BpKyfCdw15rE7VcVzQ", "alias": "little-caesars-fresno-10", "name": "Little Caesars", "image_url": "https://s3-media4.fl.yelpcdn.com/bphoto/Uz572OfyyYkYDx-9uHUHfg/o.jpg", "is_closed": false, "url": "https://www.yelp.com/biz/little-caesars-fresno-10?adjust_creative=rZiFgfUX1eajVOVygdFykg&utm_campaign=yelp_api_v3&utm_medium=api_v3_business_search&utm_source=rZiFgfUX1eajVOVygdFykg", "review_count": 19, "categories": [{"alias": "tradamerican", "title": "American (Traditional)"}, {"alias": "pizza", "title": "Pizza"}], "rating": 2.0, "coordinates": {"latitude": 29.5168571472168, "longitude": -95.4806594848633}, "transactions": [], "price": "$", "location": {"address1": "12320 Hwy 6", "address2": "", "address3": "", "city": "Fresno", "zip_code": "77545", "country": "US", "state": "TX", "display_address": ["12320 Hwy 6", "Fresno, TX 77545"]}, "phone": "", "display_phone": "", "distance": 2534.7496248340176}, {"id": "oG4AbCfRqbLX6x91_uHsIg", "alias": "papa-johns-pizza-missouri-city-2", "name": "Papa Johns Pizza", "image_url": "https://s3-media3.fl.yelpcdn.com/bphoto/mg8T_LnF4bgPbv9OBiMZog/o.jpg", "is_closed": false, "url": "https://www.yelp.com/biz/papa-johns-pizza-missouri-city-2?adjust_creative=rZiFgfUX1eajVOVygdFykg&utm_campaign=yelp_api_v3&utm_medium=api_v3_business_search&utm_source=rZiFgfUX1eajVOVygdFykg", "review_count": 2, "categories": [{"alias": "pizza", "title": "Pizza"}, {"alias": "chicken_wings", "title": "Chicken Wings"}, {"alias": "hotdogs", "title": "Fast Food"}], "rating": 3.0, "coordinates": {"latitude": 29.513186, "longitude": -95.526627}, "transactions": ["delivery", "pickup"], "location": {"address1": "4340 Sienna Pkwy", "address2": "Ste 112", "address3": null, "city": "Missouri City", "zip_code": "77459", "country": "US", "state": "TX", "display_address": ["4340 Sienna Pkwy", "Ste 112", "Missouri City, TX 77459"]}, "phone": "+18329448700", "display_phone": "(832) 944-8700", "distance": 6134.004236073981}, {"id": "wg67E-ZM1kc9gHW9PNKDDA", "alias": "helens-kitchen-houston", "name": "Helen's Kitchen", "image_url": "https://s3-media3.fl.yelpcdn.com/bphoto/ryMGZxWAnQ6Fd7pywobLGw/o.jpg", "is_closed": false, "url": "https://www.yelp.com/biz/helens-kitchen-houston?adjust_creative=rZiFgfUX1eajVOVygdFykg&utm_campaign=yelp_api_v3&utm_medium=api_v3_business_search&utm_source=rZiFgfUX1eajVOVygdFykg", "review_count": 174, "categories": [{"alias": "caribbean", "title": "Caribbean"}], "rating": 4.5, "coordinates": {"latitude": 29.6145645410941, "longitude": -95.465389}, "transactions": ["delivery", "pickup"], "price": "$$", "location": {"address1": "14608 S Post Oak Rd", "address2": "", "address3": "", "city": "Houston", "zip_code": "77045", "country": "US", "state": "TX", "display_address": ["14608 S Post Oak Rd", "Houston, TX 77045"]}, "phone": "+17134139022", "display_phone": "(713) 413-9022", "distance": 8567.738396685163}, {"id": "GB1hSh2EFA7UDC7Waf94Vw", "alias": "soul-food-by-catherine-houston", "name": "Soul Food By Catherine", "image_url": "https://s3-media3.fl.yelpcdn.com/bphoto/04_inOTGsRGesTJVizDopw/o.jpg", "is_closed": false, "url": "https://www.yelp.com/biz/soul-food-by-catherine-houston?adjust_creative=rZiFgfUX1eajVOVygdFykg&utm_campaign=yelp_api_v3&utm_medium=api_v3_business_search&utm_source=rZiFgfUX1eajVOVygdFykg", "review_count": 83, "categories": [{"alias": "soulfood", "title": "Soul Food"}], "rating": 3.0, "coordinates": {"latitude": 29.61386, "longitude": -95.44073}, "transactions": ["pickup"], "price": "$$", "location": {"address1": "4202 W Fuqua St", "address2": "", "address3": "", "city": "Houston", "zip_code": "77045", "country": "US", "state": "TX", "display_address": ["4202 W Fuqua St", "Houston, TX 77045"]}, "phone": "+17134343334", "display_phone": "(713) 434-3334", "distance": 8910.866087298073}, {"id": "9UKzRMXwtbDGlUvT-3ybRw", "alias": "papa-johns-pizza-rosharon", "name": "Papa Johns Pizza", "image_url": "https://s3-media2.fl.yelpcdn.com/bphoto/xoHm6EDFBV_uRqSRXSbcgQ/o.jpg", "is_closed": false, "url": "https://www.yelp.com/biz/papa-johns-pizza-rosharon?adjust_creative=rZiFgfUX1eajVOVygdFykg&utm_campaign=yelp_api_v3&utm_medium=api_v3_business_search&utm_source=rZiFgfUX1eajVOVygdFykg", "review_count": 14, "categories": [{"alias": "pizza", "title": "Pizza"}, {"alias": "chicken_wings", "title": "Chicken Wings"}, {"alias": "hotdogs", "title": "Fast Food"}], "rating": 2.5, "coordinates": {"latitude": 29.498031, "longitude": -95.444712}, "transactions": ["delivery"], "price": "$", "location": {"address1": "14634 Hwy 6", "address2": "Ste B&C", "address3": "", "city": "Rosharon", "zip_code": "77583", "country": "US", "state": "TX", "display_address": ["14634 Hwy 6", "Ste B&C", "Rosharon, TX 77583"]}, "phone": "+12819155867", "display_phone": "(281) 915-5867", "distance": 5024.634952415463}, {"id": "UjaXkcw_o_KsxwvXS4NePA", "alias": "mongo-pearland", "name": "Mongo", "image_url": "https://s3-media2.fl.yelpcdn.com/bphoto/DrhyTHoZLX_pq1N2Zryabg/o.jpg", "is_closed": false, "url": "https://www.yelp.com/biz/mongo-pearland?adjust_creative=rZiFgfUX1eajVOVygdFykg&utm_campaign=yelp_api_v3&utm_medium=api_v3_business_search&utm_source=rZiFgfUX1eajVOVygdFykg", "review_count": 356, "categories": [{"alias": "mongolian", "title": "Mongolian"}, {"alias": "bars", "title": "Bars"}, {"alias": "sushi", "title": "Sushi Bars"}], "rating": 3.5, "coordinates": {"latitude": 29.553499479740964, "longitude": -95.39431962466979}, "transactions": ["delivery"], "price": "$$", "location": {"address1": "11200 Broadway St", "address2": "Ste 400", "address3": "", "city": "Pearland", "zip_code": "77584", "country": "US", "state": "TX", "display_address": ["11200 Broadway St", "Ste 400", "Pearland, TX 77584"]}, "phone": "+17133401288", "display_phone": "(713) 340-1288", "distance": 7514.076373768876}, {"id": "0My0vn3ulWjEIHzmNonxPw", "alias": "bamboo-spice-missouri-city", "name": "Bamboo Spice", "image_url": "https://s3-media1.fl.yelpcdn.com/bphoto/xI75gCx6zx6_IhVH3UapzA/o.jpg", "is_closed": false, "url": "https://www.yelp.com/biz/bamboo-spice-missouri-city?adjust_creative=rZiFgfUX1eajVOVygdFykg&utm_campaign=yelp_api_v3&utm_medium=api_v3_business_search&utm_source=rZiFgfUX1eajVOVygdFykg", "review_count": 196, "categories": [{"alias": "chinese", "title": "Chinese"}], "rating": 4.5, "coordinates": {"latitude": 29.540397284605966, "longitude": -95.53673500871591}, "transactions": ["delivery", "pickup"], "price": "$$", "location": {"address1": "8817 Hwy 6", "address2": "Ste 200", "address3": "", "city": "Missouri City", "zip_code": "77459", "country": "US", "state": "TX", "display_address": ["8817 Hwy 6", "Ste 200", "Missouri City, TX 77459"]}, "phone": "+12819155265", "display_phone": "(281) 915-5265", "distance": 6481.074943341303}, {"id": "JDf-hI4Lfc78SuX1ZMBg-Q", "alias": "tings-and-wacos-sienna-plant", "name": "Tings and Wacos", "image_url": "https://s3-media1.fl.yelpcdn.com/bphoto/KbkDWzDwvvUQ8DHVNt_NQQ/o.jpg", "is_closed": false, "url": "https://www.yelp.com/biz/tings-and-wacos-sienna-plant?adjust_creative=rZiFgfUX1eajVOVygdFykg&utm_campaign=yelp_api_v3&utm_medium=api_v3_business_search&utm_source=rZiFgfUX1eajVOVygdFykg", "review_count": 2, "categories": [{"alias": "foodtrucks", "title": "Food Trucks"}, {"alias": "chicken_wings", "title": "Chicken Wings"}, {"alias": "tacos", "title": "Tacos"}], "rating": 1.0, "coordinates": {"latitude": 29.48721, "longitude": -95.51063}, "transactions": [], "location": {"address1": "See Website", "address2": null, "address3": "", "city": "SIENNA PLANT", "zip_code": "77459", "country": "US", "state": "TX", "display_address": ["See Website", "SIENNA PLANT, TX 77459"]}, "phone": "+17138350496", "display_phone": "(713) 835-0496", "distance": 8248.708179037549}, {"id": "XrvGpA_fbCAE9nvmIYTIpw", "alias": "legacy-cigars-and-lounge-stafford-2", "name": "Legacy Cigars and Lounge", "image_url": "https://s3-media4.fl.yelpcdn.com/bphoto/E9hvdlF9Y0z_yTGbJMgfUw/o.jpg", "is_closed": false, "url": "https://www.yelp.com/biz/legacy-cigars-and-lounge-stafford-2?adjust_creative=rZiFgfUX1eajVOVygdFykg&utm_campaign=yelp_api_v3&utm_medium=api_v3_business_search&utm_source=rZiFgfUX1eajVOVygdFykg", "review_count": 4, "categories": [{"alias": "cigarbars", "title": "Cigar Bars"}, {"alias": "tobaccoshops", "title": "Tobacco Shops"}, {"alias": "sportsbars", "title": "Sports Bars"}], "rating": 3.5, "coordinates": {"latitude": 29.61729, "longitude": -95.562506}, "transactions": [], "location": {"address1": "3130 S Main", "address2": null, "address3": "", "city": "Stafford", "zip_code": "77477", "country": "US", "state": "TX", "display_address": ["3130 S Main", "Stafford, TX 77477"]}, "phone": "+18325396370", "display_phone": "(832) 539-6370", "distance": 12604.66332560359}, {"id": "waYFE31kaWUWOG-nB8vQFw", "alias": "popeyes-louisiana-kitchen-pearland-4", "name": "Popeyes Louisiana Kitchen", "image_url": "https://s3-media3.fl.yelpcdn.com/bphoto/P1d81k6WxP-6aeU-lm8YOQ/o.jpg", "is_closed": false, "url": "https://www.yelp.com/biz/popeyes-louisiana-kitchen-pearland-4?adjust_creative=rZiFgfUX1eajVOVygdFykg&utm_campaign=yelp_api_v3&utm_medium=api_v3_business_search&utm_source=rZiFgfUX1eajVOVygdFykg", "review_count": 29, "categories": [{"alias": "hotdogs", "title": "Fast Food"}, {"alias": "chicken_wings", "title": "Chicken Wings"}], "rating": 2.0, "coordinates": {"latitude": 29.577926, "longitude": -95.419022}, "transactions": ["delivery", "pickup"], "price": "$", "location": {"address1": "12234 Shadow Creek Pkwy", "address2": "", "address3": null, "city": "Pearland", "zip_code": "77584", "country": "US", "state": "TX", "display_address": ["12234 Shadow Creek Pkwy", "Pearland, TX 77584"]}, "phone": "+13463573838", "display_phone": "(346) 357-3838", "distance": 6651.077431911082}, {"id": "FoZ35M76B2zT9PpQXTGxUg", "alias": "graces-cafe-missouri-city-2", "name": "Grace's Cafe", "image_url": "https://s3-media1.fl.yelpcdn.com/bphoto/knbqOm9Ink8Z8JgngyERzA/o.jpg", "is_closed": false, "url": "https://www.yelp.com/biz/graces-cafe-missouri-city-2?adjust_creative=rZiFgfUX1eajVOVygdFykg&utm_campaign=yelp_api_v3&utm_medium=api_v3_business_search&utm_source=rZiFgfUX1eajVOVygdFykg", "review_count": 36, "categories": [{"alias": "caribbean", "title": "Caribbean"}], "rating": 3.0, "coordinates": {"latitude": 29.599261659846317, "longitude": -95.52604214725064}, "transactions": ["delivery"], "price": "$$", "location": {"address1": "1909 Texas Pkwy", "address2": "", "address3": "", "city": "Missouri City", "zip_code": "77489", "country": "US", "state": "TX", "display_address": ["1909 Texas Pkwy", "Missouri City, TX 77489"]}, "phone": "+12812618451", "display_phone": "(281) 261-8451", "distance": 8750.12097312434}, {"id": "1RG2N6NGUIftZQjdFtNJgw", "alias": "bjs-restaurant-and-brewhouse-pearland-3", "name": "BJ's Restaurant & Brewhouse", "image_url": "https://s3-media2.fl.yelpcdn.com/bphoto/RAiatR5R0pl67l4CCtcx-Q/o.jpg", "is_closed": false, "url": "https://www.yelp.com/biz/bjs-restaurant-and-brewhouse-pearland-3?adjust_creative=rZiFgfUX1eajVOVygdFykg&utm_campaign=yelp_api_v3&utm_medium=api_v3_business_search&utm_source=rZiFgfUX1eajVOVygdFykg", "review_count": 417, "categories": [{"alias": "newamerican", "title": "American (New)"}, {"alias": "breweries", "title": "Breweries"}, {"alias": "pizza", "title": "Pizza"}], "rating": 3.0, "coordinates": {"latitude": 29.554596549912585, "longitude": -95.39352950000041}, "transactions": ["delivery", "pickup"], "price": "$$", "location": {"address1": "11200 Broadway St", "address2": "Ste 1700", "address3": "", "city": "Pearland", "zip_code": "77584", "country": "US", "state": "TX", "display_address": ["11200 Broadway St", "Ste 1700", "Pearland, TX 77584"]}, "phone": "+17134367805", "display_phone": "(713) 436-7805", "distance": 7617.676838096289}, {"id": "QgcquPO-CfGyn95zoV9JjA", "alias": "burgerim-missouri-city", "name": "BurgerIM", "image_url": "https://s3-media1.fl.yelpcdn.com/bphoto/docdc2CyE1NW4Ag1KtrYQg/o.jpg", "is_closed": false, "url": "https://www.yelp.com/biz/burgerim-missouri-city?adjust_creative=rZiFgfUX1eajVOVygdFykg&utm_campaign=yelp_api_v3&utm_medium=api_v3_business_search&utm_source=rZiFgfUX1eajVOVygdFykg", "review_count": 33, "categories": [{"alias": "burgers", "title": "Burgers"}], "rating": 3.5, "coordinates": {"latitude": 29.47028, "longitude": -95.47488}, "transactions": ["delivery", "pickup"], "location": {"address1": "9101 Sienna Crossing Dr", "address2": "Ste 800", "address3": null, "city": "Missouri City", "zip_code": "77459", "country": "US", "state": "TX", "display_address": ["9101 Sienna Crossing Dr", "Ste 800", "Missouri City, TX 77459"]}, "phone": "+18323212847", "display_phone": "(832) 321-2847", "distance": 6126.560218168739}, {"id": "YnCjyxe_ij8GxRbc9wZfvA", "alias": "hartz-chicken-buffet-missouri-city", "name": "Hartz Chicken Buffet", "image_url": "https://s3-media1.fl.yelpcdn.com/bphoto/hiQGrZvaAK6q0cAHPHTwCQ/o.jpg", "is_closed": false, "url": "https://www.yelp.com/biz/hartz-chicken-buffet-missouri-city?adjust_creative=rZiFgfUX1eajVOVygdFykg&utm_campaign=yelp_api_v3&utm_medium=api_v3_business_search&utm_source=rZiFgfUX1eajVOVygdFykg", "review_count": 14, "categories": [{"alias": "southern", "title": "Southern"}, {"alias": "chickenshop", "title": "Chicken Shop"}, {"alias": "hotdogs", "title": "Fast Food"}], "rating": 2.0, "coordinates": {"latitude": 29.5832, "longitude": -95.52829}, "transactions": ["delivery"], "location": {"address1": "1655-A Cartwright Rd", "address2": "", "address3": "", "city": "Missouri City", "zip_code": "77459", "country": "US", "state": "TX", "display_address": ["1655-A Cartwright Rd", "Missouri City, TX 77459"]}, "phone": "+12814383330", "display_phone": "(281) 438-3330", "distance": 7590.4346553742}, {"id": "sqri01VyobG9gobqH0qQFw", "alias": "orient-cafe-missouri-city", "name": "Orient Cafe", "image_url": "https://s3-media4.fl.yelpcdn.com/bphoto/IPT2fZqZNtGPotc-WSmXmQ/o.jpg", "is_closed": false, "url": "https://www.yelp.com/biz/orient-cafe-missouri-city?adjust_creative=rZiFgfUX1eajVOVygdFykg&utm_campaign=yelp_api_v3&utm_medium=api_v3_business_search&utm_source=rZiFgfUX1eajVOVygdFykg", "review_count": 77, "categories": [{"alias": "chinese", "title": "Chinese"}, {"alias": "noodles", "title": "Noodles"}, {"alias": "soup", "title": "Soup"}], "rating": 3.0, "coordinates": {"latitude": 29.570748, "longitude": -95.565193}, "transactions": ["delivery"], "price": "$", "location": {"address1": "3340 Fm 1092 Rd", "address2": "Ste 190", "address3": "", "city": "Missouri City", "zip_code": "77459", "country": "US", "state": "TX", "display_address": ["3340 Fm 1092 Rd", "Ste 190", "Missouri City, TX 77459"]}, "phone": "+12814994888", "display_phone": "(281) 499-4888", "distance": 9934.040288032455}, {"id": "E8WKbtxI7fziouCkbR5inA", "alias": "sambal-chef-pearland", "name": "Sambal Chef", "image_url": "https://s3-media2.fl.yelpcdn.com/bphoto/-zpcaJzBm0VZb02KrhJEEA/o.jpg", "is_closed": false, "url": "https://www.yelp.com/biz/sambal-chef-pearland?adjust_creative=rZiFgfUX1eajVOVygdFykg&utm_campaign=yelp_api_v3&utm_medium=api_v3_business_search&utm_source=rZiFgfUX1eajVOVygdFykg", "review_count": 82, "categories": [{"alias": "malaysian", "title": "Malaysian"}, {"alias": "seafood", "title": "Seafood"}, {"alias": "noodles", "title": "Noodles"}], "rating": 4.5, "coordinates": {"latitude": 29.55721, "longitude": -95.37095}, "transactions": ["delivery", "pickup"], "price": "$$", "location": {"address1": "9721 Broadway St", "address2": "Ste 103", "address3": null, "city": "Pearland", "zip_code": "77584", "country": "US", "state": "TX", "display_address": ["9721 Broadway St", "Ste 103", "Pearland, TX 77584"]}, "phone": "+12817410806", "display_phone": "(281) 741-0806", "distance": 9805.719621321243}, {"id": "-wOuHdkxmM5EqCUEaMRtoA", "alias": "imperial-china-diner-pearland", "name": "Imperial China Diner", "image_url": "https://s3-media4.fl.yelpcdn.com/bphoto/aYUh_H3fdqvCtEcjEZbxXg/o.jpg", "is_closed": false, "url": "https://www.yelp.com/biz/imperial-china-diner-pearland?adjust_creative=rZiFgfUX1eajVOVygdFykg&utm_campaign=yelp_api_v3&utm_medium=api_v3_business_search&utm_source=rZiFgfUX1eajVOVygdFykg", "review_count": 112, "categories": [{"alias": "chinese", "title": "Chinese"}], "rating": 3.0, "coordinates": {"latitude": 29.58164, "longitude": -95.390868}, "transactions": ["delivery", "pickup"], "price": "$$", "location": {"address1": "11041 Shadow Creek Pkwy", "address2": "Ste 113", "address3": "", "city": "Pearland", "zip_code": "77047", "country": "US", "state": "TX", "display_address": ["11041 Shadow Creek Pkwy", "Ste 113", "Pearland, TX 77047"]}, "phone": "+17133401366", "display_phone": "(713) 340-1366", "distance": 9070.966372582905}, {"id": "5eS48y20LpMa3IM9WnT7YA", "alias": "kfc-missouri-city", "name": "KFC", "image_url": "https://s3-media2.fl.yelpcdn.com/bphoto/Eay9n9QWcA_GBj_Dli148g/o.jpg", "is_closed": false, "url": "https://www.yelp.com/biz/kfc-missouri-city?adjust_creative=rZiFgfUX1eajVOVygdFykg&utm_campaign=yelp_api_v3&utm_medium=api_v3_business_search&utm_source=rZiFgfUX1eajVOVygdFykg", "review_count": 16, "categories": [{"alias": "hotdogs", "title": "Fast Food"}, {"alias": "chicken_wings", "title": "Chicken Wings"}, {"alias": "chickenshop", "title": "Chicken Shop"}], "rating": 1.5, "coordinates": {"latitude": 29.59526, "longitude": -95.527146}, "transactions": ["delivery", "pickup"], "price": "$", "location": {"address1": "2210 Texas Pkwy", "address2": "", "address3": "", "city": "Missouri City", "zip_code": "77489", "country": "US", "state": "TX", "display_address": ["2210 Texas Pkwy", "Missouri City, TX 77489"]}, "phone": "+12814039162", "display_phone": "(281) 403-9162", "distance": 8474.933104429607}, {"id": "4nWy-Hwk6efoMFojdWCiww", "alias": "wingstop-manvel", "name": "Wingstop", "image_url": "https://s3-media2.fl.yelpcdn.com/bphoto/A9S1K8RnVMjlUi_tARITtg/o.jpg", "is_closed": false, "url": "https://www.yelp.com/biz/wingstop-manvel?adjust_creative=rZiFgfUX1eajVOVygdFykg&utm_campaign=yelp_api_v3&utm_medium=api_v3_business_search&utm_source=rZiFgfUX1eajVOVygdFykg", "review_count": 13, "categories": [{"alias": "chicken_wings", "title": "Chicken Wings"}], "rating": 2.0, "coordinates": {"latitude": 29.471654, "longitude": -95.367762}, "transactions": [], "location": {"address1": "19431 Morris Ave", "address2": "Ste 130", "address3": null, "city": "Manvel", "zip_code": "77578", "country": "US", "state": "TX", "display_address": ["19431 Morris Ave", "Ste 130", "Manvel, TX 77578"]}, "phone": "+18323365432", "display_phone": "(832) 336-5432", "distance": 12293.679058842496}, {"id": "8enThogB5aC0_v1eHfOmzw", "alias": "dominos-pizza-rosharon", "name": "Domino's Pizza", "image_url": "https://s3-media3.fl.yelpcdn.com/bphoto/fzp4DtqD9H9_rpbjCRReFw/o.jpg", "is_closed": false, "url": "https://www.yelp.com/biz/dominos-pizza-rosharon?adjust_creative=rZiFgfUX1eajVOVygdFykg&utm_campaign=yelp_api_v3&utm_medium=api_v3_business_search&utm_source=rZiFgfUX1eajVOVygdFykg", "review_count": 30, "categories": [{"alias": "pizza", "title": "Pizza"}, {"alias": "chicken_wings", "title": "Chicken Wings"}, {"alias": "sandwiches", "title": "Sandwiches"}], "rating": 2.0, "coordinates": {"latitude": 29.4955673, "longitude": -95.4388199}, "transactions": [], "price": "$", "location": {"address1": "15070 Highway 6", "address2": "", "address3": "", "city": "Rosharon", "zip_code": "77583", "country": "US", "state": "TX", "display_address": ["15070 Highway 6", "Rosharon, TX 77583"]}, "phone": "+12814312900", "display_phone": "(281) 431-2900", "distance": 5598.575226357542}, {"id": "75GQTs1V0Po6dgAdiiJLQA", "alias": "crawfish-bistro-missouri-city", "name": "Crawfish Bistro", "image_url": "https://s3-media4.fl.yelpcdn.com/bphoto/DYupG2lL0ZkEo36lwa6EiA/o.jpg", "is_closed": false, "url": "https://www.yelp.com/biz/crawfish-bistro-missouri-city?adjust_creative=rZiFgfUX1eajVOVygdFykg&utm_campaign=yelp_api_v3&utm_medium=api_v3_business_search&utm_source=rZiFgfUX1eajVOVygdFykg", "review_count": 52, "categories": [{"alias": "cajun", "title": "Cajun/Creole"}, {"alias": "seafood", "title": "Seafood"}], "rating": 4.0, "coordinates": {"latitude": 29.536743, "longitude": -95.529563}, "transactions": ["delivery", "pickup"], "location": {"address1": "9340 Hwy 6", "address2": "Ste 100", "address3": null, "city": "Missouri City", "zip_code": "77459", "country": "US", "state": "TX", "display_address": ["9340 Hwy 6", "Ste 100", "Missouri City, TX 77459"]}, "phone": "+18324400013", "display_phone": "(832) 440-0013", "distance": 5720.915235745661}, {"id": "LGOA7Q91KVp2r4LVsW99ew", "alias": "all-seasons-grill-missouri-city", "name": "All Seasons Grill", "image_url": "https://s3-media2.fl.yelpcdn.com/bphoto/v-045vKdu14rBTuDBLu0tQ/o.jpg", "is_closed": false, "url": "https://www.yelp.com/biz/all-seasons-grill-missouri-city?adjust_creative=rZiFgfUX1eajVOVygdFykg&utm_campaign=yelp_api_v3&utm_medium=api_v3_business_search&utm_source=rZiFgfUX1eajVOVygdFykg", "review_count": 3, "categories": [{"alias": "catering", "title": "Caterers"}], "rating": 2.0, "coordinates": {"latitude": 29.5835843321981, "longitude": -95.5640799924731}, "transactions": [], "location": {"address1": "2447 Fm 1092", "address2": "", "address3": "", "city": "Missouri City", "zip_code": "77459", "country": "US", "state": "TX", "display_address": ["2447 Fm 1092", "Missouri City, TX 77459"]}, "phone": "+18006912795", "display_phone": "(800) 691-2795", "distance": 10452.56546479882}, {"id": "86uyY5anHzDr6DdHKfvnug", "alias": "nuksys-fine-catering-stafford-4", "name": "Nuksy's Fine Catering", "image_url": "https://s3-media4.fl.yelpcdn.com/bphoto/dXiO9vYxTa5x9AQeIMniVA/o.jpg", "is_closed": false, "url": "https://www.yelp.com/biz/nuksys-fine-catering-stafford-4?adjust_creative=rZiFgfUX1eajVOVygdFykg&utm_campaign=yelp_api_v3&utm_medium=api_v3_business_search&utm_source=rZiFgfUX1eajVOVygdFykg", "review_count": 5, "categories": [{"alias": "catering", "title": "Caterers"}], "rating": 3.5, "coordinates": {"latitude": 29.61669, "longitude": -95.56418}, "transactions": [], "location": {"address1": "229 FM 1092 Rd", "address2": null, "address3": null, "city": "Stafford", "zip_code": "77477", "country": "US", "state": "TX", "display_address": ["229 FM 1092 Rd", "Stafford, TX 77477"]}, "phone": "+12819855893", "display_phone": "(281) 985-5893", "distance": 12984.919739073863}, {"id": "_Mw4m6mK2pzFETwYOTgP4g", "alias": "candy-shack-daiquiris-missouri-city", "name": "Candy Shack Daiquiris", "image_url": "https://s3-media4.fl.yelpcdn.com/bphoto/eBSFFZljnP56-4YfpRwm1g/o.jpg", "is_closed": false, "url": "https://www.yelp.com/biz/candy-shack-daiquiris-missouri-city?adjust_creative=rZiFgfUX1eajVOVygdFykg&utm_campaign=yelp_api_v3&utm_medium=api_v3_business_search&utm_source=rZiFgfUX1eajVOVygdFykg", "review_count": 15, "categories": [{"alias": "drivethrubars", "title": "Drive-Thru Bars"}, {"alias": "tradamerican", "title": "American (Traditional)"}], "rating": 4.5, "coordinates": {"latitude": 29.5567396, "longitude": -95.556941}, "transactions": ["pickup", "delivery"], "location": {"address1": "6850 Hwy 6", "address2": "Ste 700", "address3": "", "city": "Missouri City", "zip_code": "77459", "country": "US", "state": "TX", "display_address": ["6850 Hwy 6", "Ste 700", "Missouri City, TX 77459"]}, "phone": "+18327814897", "display_phone": "(832) 781-4897", "distance": 8693.892816942647}, {"id": "KrMtvI6enjXhH36oYScgjQ", "alias": "popeyes-louisiana-kitchen-pearland-2", "name": "Popeyes Louisiana Kitchen", "image_url": "https://s3-media1.fl.yelpcdn.com/bphoto/BVh9ggRWPNmY0PcCEBo7ew/o.jpg", "is_closed": false, "url": "https://www.yelp.com/biz/popeyes-louisiana-kitchen-pearland-2?adjust_creative=rZiFgfUX1eajVOVygdFykg&utm_campaign=yelp_api_v3&utm_medium=api_v3_business_search&utm_source=rZiFgfUX1eajVOVygdFykg", "review_count": 48, "categories": [{"alias": "hotdogs", "title": "Fast Food"}, {"alias": "chicken_wings", "title": "Chicken Wings"}], "rating": 2.5, "coordinates": {"latitude": 29.555217, "longitude": -95.395411}, "transactions": ["pickup", "delivery"], "price": "$", "location": {"address1": "11308 Broadway St", "address2": "", "address3": "", "city": "Pearland", "zip_code": "77584", "country": "US", "state": "TX", "display_address": ["11308 Broadway St", "Pearland, TX 77584"]}, "phone": "+17133401751", "display_phone": "(713) 340-1751", "distance": 7459.280366665711}, {"id": "C3KvG2IaMsQMdP70M2fooQ", "alias": "sugars-cajun-cuisine-and-bar-missouri-city", "name": "Sugar's Cajun Cuisine & Bar", "image_url": "https://s3-media3.fl.yelpcdn.com/bphoto/xAZpvoNYS--6U-NVZ3ee4A/o.jpg", "is_closed": false, "url": "https://www.yelp.com/biz/sugars-cajun-cuisine-and-bar-missouri-city?adjust_creative=rZiFgfUX1eajVOVygdFykg&utm_campaign=yelp_api_v3&utm_medium=api_v3_business_search&utm_source=rZiFgfUX1eajVOVygdFykg", "review_count": 164, "categories": [{"alias": "southern", "title": "Southern"}, {"alias": "bars", "title": "Bars"}, {"alias": "cajun", "title": "Cajun/Creole"}], "rating": 2.5, "coordinates": {"latitude": 29.5700077063231, "longitude": -95.5652812868357}, "transactions": ["pickup", "delivery"], "price": "$$", "location": {"address1": "3424 Fm 1092 Rd", "address2": "Ste 290", "address3": null, "city": "Missouri City", "zip_code": "77459", "country": "US", "state": "TX", "display_address": ["3424 Fm 1092 Rd", "Ste 290", "Missouri City, TX 77459"]}, "phone": "+18329871797", "display_phone": "(832) 987-1797", "distance": 9911.788113616269}, {"id": "zCf4Ipa4XcGtmW_HrIjMbA", "alias": "popeyes-louisiana-kitchen-stafford-2", "name": "Popeyes Louisiana Kitchen", "image_url": "https://s3-media3.fl.yelpcdn.com/bphoto/XFsALIj_xTrk4_5LUunRsQ/o.jpg", "is_closed": false, "url": "https://www.yelp.com/biz/popeyes-louisiana-kitchen-stafford-2?adjust_creative=rZiFgfUX1eajVOVygdFykg&utm_campaign=yelp_api_v3&utm_medium=api_v3_business_search&utm_source=rZiFgfUX1eajVOVygdFykg", "review_count": 19, "categories": [{"alias": "hotdogs", "title": "Fast Food"}, {"alias": "chicken_wings", "title": "Chicken Wings"}], "rating": 2.0, "coordinates": {"latitude": 29.621914, "longitude": -95.571924}, "transactions": ["pickup", "delivery"], "location": {"address1": "3833 S Main St", "address2": null, "address3": null, "city": "Stafford", "zip_code": "77477", "country": "US", "state": "TX", "display_address": ["3833 S Main St", "Stafford, TX 77477"]}, "phone": "+18325391019", "display_phone": "(832) 539-1019", "distance": 13615.090163024655}, {"id": "q_yDbG5FcRcNevdfhqDVWQ", "alias": "churchs-chicken-manvel", "name": "Church's Chicken", "image_url": "https://s3-media3.fl.yelpcdn.com/bphoto/pRFsY32pgA3y8wlRtDGrWg/o.jpg", "is_closed": false, "url": "https://www.yelp.com/biz/churchs-chicken-manvel?adjust_creative=rZiFgfUX1eajVOVygdFykg&utm_campaign=yelp_api_v3&utm_medium=api_v3_business_search&utm_source=rZiFgfUX1eajVOVygdFykg", "review_count": 10, "categories": [{"alias": "hotdogs", "title": "Fast Food"}, {"alias": "chicken_wings", "title": "Chicken Wings"}], "rating": 3.5, "coordinates": {"latitude": 29.481281, "longitude": -95.399782}, "transactions": ["delivery"], "price": "$", "location": {"address1": "17510 Morris Ave", "address2": "", "address3": "", "city": "Manvel", "zip_code": "77578", "country": "US", "state": "TX", "display_address": ["17510 Morris Ave", "Manvel, TX 77578"]}, "phone": "+12816920000", "display_phone": "(281) 692-0000", "distance": 9228.402033965045}, {"id": "mueUMQWnmaX18mmv5QO8jA", "alias": "churchs-chicken-rosharon", "name": "Church's Chicken", "image_url": "https://s3-media1.fl.yelpcdn.com/bphoto/mDPI9BqUbMNAenh5Isib9A/o.jpg", "is_closed": false, "url": "https://www.yelp.com/biz/churchs-chicken-rosharon?adjust_creative=rZiFgfUX1eajVOVygdFykg&utm_campaign=yelp_api_v3&utm_medium=api_v3_business_search&utm_source=rZiFgfUX1eajVOVygdFykg", "review_count": 2, "categories": [{"alias": "hotdogs", "title": "Fast Food"}, {"alias": "chicken_wings", "title": "Chicken Wings"}], "rating": 2.0, "coordinates": {"latitude": 29.536335, "longitude": -95.520512}, "transactions": [], "price": "$", "location": {"address1": "9955 Highway 6", "address2": "", "address3": "", "city": "Rosharon", "zip_code": "77583", "country": "US", "state": "TX", "display_address": ["9955 Highway 6", "Rosharon, TX 77583"]}, "phone": "+12814315012", "display_phone": "(281) 431-5012", "distance": 4906.359251941507}, {"id": "LuBxxK_u67jXt3Rxg4EqTQ", "alias": "dominos-rosharon", "name": "Domino's", "image_url": "", "is_closed": false, "url": "https://www.yelp.com/biz/dominos-rosharon?adjust_creative=rZiFgfUX1eajVOVygdFykg&utm_campaign=yelp_api_v3&utm_medium=api_v3_business_search&utm_source=rZiFgfUX1eajVOVygdFykg", "review_count": 3, "categories": [{"alias": "chicken_wings", "title": "Chicken Wings"}, {"alias": "pizza", "title": "Pizza"}, {"alias": "sandwiches", "title": "Sandwiches"}], "rating": 3.0, "coordinates": {"latitude": 29.4955673, "longitude": -95.4388199}, "transactions": [], "price": "$", "location": {"address1": "15070 Highway 6", "address2": "", "address3": "", "city": "Rosharon", "zip_code": "77583", "country": "US", "state": "TX", "display_address": ["15070 Highway 6", "Rosharon, TX 77583"]}, "phone": "+12814312900", "display_phone": "(281) 431-2900", "distance": 5598.575226357542}, {"id": "3NHyFlitsH51XjuIusX-3Q", "alias": "biryani-express-pearland-2", "name": "Biryani Express", "image_url": "https://s3-media2.fl.yelpcdn.com/bphoto/KA5y3LIGGV2OwmDsSVTfwg/o.jpg", "is_closed": false, "url": "https://www.yelp.com/biz/biryani-express-pearland-2?adjust_creative=rZiFgfUX1eajVOVygdFykg&utm_campaign=yelp_api_v3&utm_medium=api_v3_business_search&utm_source=rZiFgfUX1eajVOVygdFykg", "review_count": 260, "categories": [{"alias": "indpak", "title": "Indian"}, {"alias": "halal", "title": "Halal"}], "rating": 4.0, "coordinates": {"latitude": 29.556549, "longitude": -95.380515}, "transactions": ["pickup", "delivery"], "price": "$$", "location": {"address1": "10223 W Broadway St", "address2": "Ste U", "address3": "", "city": "Pearland", "zip_code": "77584", "country": "US", "state": "TX", "display_address": ["10223 W Broadway St", "Ste U", "Pearland, TX 77584"]}, "phone": "+17134362727", "display_phone": "(713) 436-2727", "distance": 8891.651488164583}, {"id": "jx7VXB5oUE1RnSKs4zFUHw", "alias": "big-horn-bbq-pearland", "name": "Big Horn BBQ", "image_url": "https://s3-media1.fl.yelpcdn.com/bphoto/TjNvunD1u3wgT_JhlYGsIA/o.jpg", "is_closed": false, "url": "https://www.yelp.com/biz/big-horn-bbq-pearland?adjust_creative=rZiFgfUX1eajVOVygdFykg&utm_campaign=yelp_api_v3&utm_medium=api_v3_business_search&utm_source=rZiFgfUX1eajVOVygdFykg", "review_count": 327, "categories": [{"alias": "bbq", "title": "Barbeque"}, {"alias": "breakfast_brunch", "title": "Breakfast & Brunch"}, {"alias": "burgers", "title": "Burgers"}], "rating": 3.0, "coordinates": {"latitude": 29.5692407905726, "longitude": -95.3854281600273}, "transactions": ["delivery"], "price": "$$", "location": {"address1": "2300 Smith Ranch Rd", "address2": "", "address3": "", "city": "Pearland", "zip_code": "77584", "country": "US", "state": "TX", "display_address": ["2300 Smith Ranch Rd", "Pearland, TX 77584"]}, "phone": "+12817413289", "display_phone": "(281) 741-3289", "distance": 8888.390692177121}, {"id": "H14LHMB5ScfQL_FgZj926w", "alias": "bbs-tex-orleans-pearland", "name": "BB's Tex-Orleans", "image_url": "https://s3-media1.fl.yelpcdn.com/bphoto/rmhh22X9bGuaCO5m_SYS2Q/o.jpg", "is_closed": false, "url": "https://www.yelp.com/biz/bbs-tex-orleans-pearland?adjust_creative=rZiFgfUX1eajVOVygdFykg&utm_campaign=yelp_api_v3&utm_medium=api_v3_business_search&utm_source=rZiFgfUX1eajVOVygdFykg", "review_count": 487, "categories": [{"alias": "cajun", "title": "Cajun/Creole"}, {"alias": "seafood", "title": "Seafood"}, {"alias": "salad", "title": "Salad"}], "rating": 3.5, "coordinates": {"latitude": 29.5565354142361, "longitude": -95.3712999075651}, "transactions": ["delivery"], "price": "$$", "location": {"address1": "9719 W Broadway St", "address2": "Ste 8", "address3": "", "city": "Pearland", "zip_code": "77584", "country": "US", "state": "TX", "display_address": ["9719 W Broadway St", "Ste 8", "Pearland, TX 77584"]}, "phone": "+18328563200", "display_phone": "(832) 856-3200", "distance": 9759.658585080533}, {"id": "RBSjMPCvGd4ipluFP6o7og", "alias": "kray-cray-cajun-house-houston-4", "name": "Kray Cray Cajun House", "image_url": "https://s3-media1.fl.yelpcdn.com/bphoto/BOZKDRoG29P12mRVwRRXmw/o.jpg", "is_closed": false, "url": "https://www.yelp.com/biz/kray-cray-cajun-house-houston-4?adjust_creative=rZiFgfUX1eajVOVygdFykg&utm_campaign=yelp_api_v3&utm_medium=api_v3_business_search&utm_source=rZiFgfUX1eajVOVygdFykg", "review_count": 34, "categories": [{"alias": "cajun", "title": "Cajun/Creole"}], "rating": 4.0, "coordinates": {"latitude": 29.5971549, "longitude": -95.4445728}, "transactions": ["pickup"], "location": {"address1": "4160 S Sam Houston Pkwy", "address2": "Ste 200", "address3": "", "city": "Houston", "zip_code": "77053", "country": "US", "state": "TX", "display_address": ["4160 S Sam Houston Pkwy", "Ste 200", "Houston, TX 77053"]}, "phone": "+17134139999", "display_phone": "(713) 413-9999", "distance": 7084.443776970212}, {"id": "OBqBG6xwSMNkWYIfJ3ddGg", "alias": "pepperonis-pearland-pearland-2", "name": "Pepperoni's - Pearland", "image_url": "https://s3-media3.fl.yelpcdn.com/bphoto/LxgsNa_p9uKCo3LCUGrQ3w/o.jpg", "is_closed": false, "url": "https://www.yelp.com/biz/pepperonis-pearland-pearland-2?adjust_creative=rZiFgfUX1eajVOVygdFykg&utm_campaign=yelp_api_v3&utm_medium=api_v3_business_search&utm_source=rZiFgfUX1eajVOVygdFykg", "review_count": 97, "categories": [{"alias": "pizza", "title": "Pizza"}], "rating": 3.5, "coordinates": {"latitude": 29.5564963336058, "longitude": -95.4168250411749}, "transactions": ["pickup", "delivery"], "price": "$$", "location": {"address1": "2975 Kingsley Dr", "address2": "Ste 121", "address3": "", "city": "Pearland", "zip_code": "77584", "country": "US", "state": "TX", "display_address": ["2975 Kingsley Dr", "Ste 121", "Pearland, TX 77584"]}, "phone": "+18322884766", "display_phone": "(832) 288-4766", "distance": 5539.753492448136}, {"id": "fe_nfe8kbALy76BbTvUV0A", "alias": "popeyes-louisiana-kitchen-houston-19", "name": "Popeyes Louisiana Kitchen", "image_url": "https://s3-media1.fl.yelpcdn.com/bphoto/mXg8asa9-jO_BZPLFBTEWw/o.jpg", "is_closed": false, "url": "https://www.yelp.com/biz/popeyes-louisiana-kitchen-houston-19?adjust_creative=rZiFgfUX1eajVOVygdFykg&utm_campaign=yelp_api_v3&utm_medium=api_v3_business_search&utm_source=rZiFgfUX1eajVOVygdFykg", "review_count": 12, "categories": [{"alias": "hotdogs", "title": "Fast Food"}, {"alias": "chicken_wings", "title": "Chicken Wings"}], "rating": 1.5, "coordinates": {"latitude": 29.615552, "longitude": -95.4956835}, "transactions": ["pickup", "delivery"], "price": "$", "location": {"address1": "7416A S Sam Houston Pkwy W", "address2": null, "address3": "", "city": "Houston", "zip_code": "77085", "country": "US", "state": "TX", "display_address": ["7416A S Sam Houston Pkwy W", "Houston, TX 77085"]}, "phone": "+17137232359", "display_phone": "(713) 723-2359", "distance": 9020.561115878238}, {"id": "im94gX5_z9Du6Kh4ecCwBQ", "alias": "dominos-pizza-missouri-city-7", "name": "Domino's Pizza", "image_url": "https://s3-media4.fl.yelpcdn.com/bphoto/GMbe7cuPH1ZoxKTYjgyd6Q/o.jpg", "is_closed": false, "url": "https://www.yelp.com/biz/dominos-pizza-missouri-city-7?adjust_creative=rZiFgfUX1eajVOVygdFykg&utm_campaign=yelp_api_v3&utm_medium=api_v3_business_search&utm_source=rZiFgfUX1eajVOVygdFykg", "review_count": 26, "categories": [{"alias": "pizza", "title": "Pizza"}, {"alias": "chicken_wings", "title": "Chicken Wings"}, {"alias": "sandwiches", "title": "Sandwiches"}], "rating": 2.5, "coordinates": {"latitude": 29.53695, "longitude": -95.5343231}, "transactions": [], "price": "$", "location": {"address1": "6210 Sienna Pkwy", "address2": "Ste 330", "address3": null, "city": "Missouri City", "zip_code": "77459", "country": "US", "state": "TX", "display_address": ["6210 Sienna Pkwy", "Ste 330", "Missouri City, TX 77459"]}, "phone": "+12817780688", "display_phone": "(281) 778-0688", "distance": 6240.860973401626}, {"id": "9TGMjHdY2Vp08_J4KdixWw", "alias": "smashburger-pearland-2", "name": "Smashburger", "image_url": "https://s3-media3.fl.yelpcdn.com/bphoto/poHwi8mkZTaFbWtS9lJLug/o.jpg", "is_closed": false, "url": "https://www.yelp.com/biz/smashburger-pearland-2?adjust_creative=rZiFgfUX1eajVOVygdFykg&utm_campaign=yelp_api_v3&utm_medium=api_v3_business_search&utm_source=rZiFgfUX1eajVOVygdFykg", "review_count": 118, "categories": [{"alias": "burgers", "title": "Burgers"}, {"alias": "chicken_wings", "title": "Chicken Wings"}, {"alias": "hotdogs", "title": "Fast Food"}], "rating": 3.5, "coordinates": {"latitude": 29.554638902464593, "longitude": -95.37857985115494}, "transactions": ["pickup", "delivery"], "price": "$$", "location": {"address1": "10228 Fm 518", "address2": "Ste 140", "address3": "", "city": "Pearland", "zip_code": "77581", "country": "US", "state": "TX", "display_address": ["10228 Fm 518", "Ste 140", "Pearland, TX 77581"]}, "phone": "+17134365919", "display_phone": "(713) 436-5919", "distance": 9026.77742282218}, {"id": "ESRI0IkquiDqU79DzxGDBQ", "alias": "dominos-pizza-houston-46", "name": "Domino's Pizza", "image_url": "https://s3-media4.fl.yelpcdn.com/bphoto/YHJu08N2ka0fVjPrhTsvug/o.jpg", "is_closed": false, "url": "https://www.yelp.com/biz/dominos-pizza-houston-46?adjust_creative=rZiFgfUX1eajVOVygdFykg&utm_campaign=yelp_api_v3&utm_medium=api_v3_business_search&utm_source=rZiFgfUX1eajVOVygdFykg", "review_count": 14, "categories": [{"alias": "pizza", "title": "Pizza"}, {"alias": "chicken_wings", "title": "Chicken Wings"}, {"alias": "sandwiches", "title": "Sandwiches"}], "rating": 2.0, "coordinates": {"latitude": 29.592632, "longitude": -95.467895}, "transactions": [], "price": "$", "location": {"address1": "16001 S Post Oak Rd", "address2": "", "address3": "", "city": "Houston", "zip_code": "77053", "country": "US", "state": "TX", "display_address": ["16001 S Post Oak Rd", "Houston, TX 77053"]}, "phone": "+12814377700", "display_phone": "(281) 437-7700", "distance": 6124.41171228803}, {"id": "BXzdfhfgS5UXFs6pRNIlTQ", "alias": "marcos-pizza-pearland-2", "name": "Marco's Pizza", "image_url": "https://s3-media2.fl.yelpcdn.com/bphoto/VOtlyLBwgPM1psBVHjWZiw/o.jpg", "is_closed": false, "url": "https://www.yelp.com/biz/marcos-pizza-pearland-2?adjust_creative=rZiFgfUX1eajVOVygdFykg&utm_campaign=yelp_api_v3&utm_medium=api_v3_business_search&utm_source=rZiFgfUX1eajVOVygdFykg", "review_count": 60, "categories": [{"alias": "pizza", "title": "Pizza"}], "rating": 3.5, "coordinates": {"latitude": 29.55456, "longitude": -95.418934}, "transactions": ["pickup", "delivery"], "price": "$$", "location": {"address1": "12810 W Broadway St", "address2": "Ste 100", "address3": null, "city": "Pearland", "zip_code": "77584", "country": "US", "state": "TX", "display_address": ["12810 W Broadway St", "Ste 100", "Pearland, TX 77584"]}, "phone": "+17134362000", "display_phone": "(713) 436-2000", "distance": 5303.088721706506}, {"id": "iP4K5h-r73L3Rn60OYIjcg", "alias": "kfc-houston-29", "name": "KFC", "image_url": "https://s3-media3.fl.yelpcdn.com/bphoto/V5aFFgypQhySXBCZ5-sVpw/o.jpg", "is_closed": false, "url": "https://www.yelp.com/biz/kfc-houston-29?adjust_creative=rZiFgfUX1eajVOVygdFykg&utm_campaign=yelp_api_v3&utm_medium=api_v3_business_search&utm_source=rZiFgfUX1eajVOVygdFykg", "review_count": 20, "categories": [{"alias": "hotdogs", "title": "Fast Food"}, {"alias": "chicken_wings", "title": "Chicken Wings"}, {"alias": "chickenshop", "title": "Chicken Shop"}], "rating": 1.5, "coordinates": {"latitude": 29.613712, "longitude": -95.438794}, "transactions": ["pickup", "delivery"], "price": "$", "location": {"address1": "4044 W Fuqua St", "address2": "", "address3": "", "city": "Houston", "zip_code": "77045", "country": "US", "state": "TX", "display_address": ["4044 W Fuqua St", "Houston, TX 77045"]}, "phone": "+17134334731", "display_phone": "(713) 433-4731", "distance": 8977.959782040967}, {"id": "ZrKxZRMjKjqRihMcsN8VMQ", "alias": "dominos-pizza-pearland-6", "name": "Domino's Pizza", "image_url": "https://s3-media1.fl.yelpcdn.com/bphoto/aJegQc2KLjKEea44htz62Q/o.jpg", "is_closed": false, "url": "https://www.yelp.com/biz/dominos-pizza-pearland-6?adjust_creative=rZiFgfUX1eajVOVygdFykg&utm_campaign=yelp_api_v3&utm_medium=api_v3_business_search&utm_source=rZiFgfUX1eajVOVygdFykg", "review_count": 47, "categories": [{"alias": "chicken_wings", "title": "Chicken Wings"}, {"alias": "pizza", "title": "Pizza"}, {"alias": "sandwiches", "title": "Sandwiches"}], "rating": 1.5, "coordinates": {"latitude": 29.576714816822903, "longitude": -95.40571480000473}, "transactions": [], "price": "$", "location": {"address1": "12002 Shadow Creek Pkwy", "address2": "Ste 105", "address3": null, "city": "Pearland", "zip_code": "77584", "country": "US", "state": "TX", "display_address": ["12002 Shadow Creek Pkwy", "Ste 105", "Pearland, TX 77584"]}, "phone": "+17134369990", "display_phone": "(713) 436-9990", "distance": 7573.133768158881}, {"id": "9_tUuDto7kdYeUzdbYm25w", "alias": "churchs-chicken-houston-25", "name": "Church's Chicken", "image_url": "https://s3-media1.fl.yelpcdn.com/bphoto/2_rLLK7aLBw-u2i9Deyd4w/o.jpg", "is_closed": false, "url": "https://www.yelp.com/biz/churchs-chicken-houston-25?adjust_creative=rZiFgfUX1eajVOVygdFykg&utm_campaign=yelp_api_v3&utm_medium=api_v3_business_search&utm_source=rZiFgfUX1eajVOVygdFykg", "review_count": 9, "categories": [{"alias": "hotdogs", "title": "Fast Food"}, {"alias": "chicken_wings", "title": "Chicken Wings"}], "rating": 2.0, "coordinates": {"latitude": 29.6170795, "longitude": -95.4652349}, "transactions": ["delivery"], "price": "$", "location": {"address1": "14450 S Post Oak", "address2": null, "address3": null, "city": "Houston", "zip_code": "77045", "country": "US", "state": "TX", "display_address": ["14450 S Post Oak", "Houston, TX 77045"]}, "phone": "+17134330943", "display_phone": "(713) 433-0943", "distance": 8803.06543341755}, {"id": "KhxkYQWzWCRWFnxDwEjK_g", "alias": "crawfish-n-more-missouri-city", "name": "Crawfish N More", "image_url": "https://s3-media4.fl.yelpcdn.com/bphoto/Iu_KKjehU4g7CMLFluAGOA/o.jpg", "is_closed": false, "url": "https://www.yelp.com/biz/crawfish-n-more-missouri-city?adjust_creative=rZiFgfUX1eajVOVygdFykg&utm_campaign=yelp_api_v3&utm_medium=api_v3_business_search&utm_source=rZiFgfUX1eajVOVygdFykg", "review_count": 102, "categories": [{"alias": "seafood", "title": "Seafood"}, {"alias": "cajun", "title": "Cajun/Creole"}], "rating": 3.5, "coordinates": {"latitude": 29.562965, "longitude": -95.564518}, "transactions": ["delivery"], "price": "$$", "location": {"address1": "6210 Hwy 6", "address2": null, "address3": "", "city": "Missouri City", "zip_code": "77459", "country": "US", "state": "TX", "display_address": ["6210 Hwy 6", "Missouri City, TX 77459"]}, "phone": "+12819695322", "display_phone": "(281) 969-5322", "distance": 9611.608208544541}, {"id": "Mvnyxnpyuaf_KnAjtxcbjg", "alias": "russos-new-york-pizzeria-pearland-2", "name": "Russo's New York Pizzeria", "image_url": "https://s3-media3.fl.yelpcdn.com/bphoto/nC_2nCr1pK2UUfox-y-5UQ/o.jpg", "is_closed": false, "url": "https://www.yelp.com/biz/russos-new-york-pizzeria-pearland-2?adjust_creative=rZiFgfUX1eajVOVygdFykg&utm_campaign=yelp_api_v3&utm_medium=api_v3_business_search&utm_source=rZiFgfUX1eajVOVygdFykg", "review_count": 117, "categories": [{"alias": "pizza", "title": "Pizza"}, {"alias": "italian", "title": "Italian"}], "rating": 4.0, "coordinates": {"latitude": 29.55362973323861, "longitude": -95.39374590000001}, "transactions": ["pickup", "delivery"], "price": "$$", "location": {"address1": "11200 Broadway St", "address2": "Ste 635", "address3": "", "city": "Pearland", "zip_code": "77584", "country": "US", "state": "TX", "display_address": ["11200 Broadway St", "Ste 635", "Pearland, TX 77584"]}, "phone": "+12812726898", "display_phone": "(281) 272-6898", "distance": 7571.420891357485}, {"id": "8mDzOO_wbNlpbkYd2JsrVw", "alias": "pizza-hut-missouri-city", "name": "Pizza Hut", "image_url": "https://s3-media3.fl.yelpcdn.com/bphoto/JlzJlezJB3jgCRg3g92T7w/o.jpg", "is_closed": false, "url": "https://www.yelp.com/biz/pizza-hut-missouri-city?adjust_creative=rZiFgfUX1eajVOVygdFykg&utm_campaign=yelp_api_v3&utm_medium=api_v3_business_search&utm_source=rZiFgfUX1eajVOVygdFykg", "review_count": 78, "categories": [{"alias": "pizza", "title": "Pizza"}, {"alias": "chicken_wings", "title": "Chicken Wings"}, {"alias": "hotdogs", "title": "Fast Food"}], "rating": 1.0, "coordinates": {"latitude": 29.59467, "longitude": -95.52731}, "transactions": ["pickup", "delivery"], "price": "$", "location": {"address1": "2292 Fm 2234 Rd", "address2": "", "address3": "Texas Parkway", "city": "Missouri City", "zip_code": "77489", "country": "US", "state": "TX", "display_address": ["2292 Fm 2234 Rd", "Texas Parkway", "Missouri City, TX 77489"]}, "phone": "+12812616611", "display_phone": "(281) 261-6611", "distance": 6097.795050761844}, {"id": "BArThMAo_ue1dnlxfjDKxw", "alias": "churchs-chicken-houston-70", "name": "Church's Chicken", "image_url": "https://s3-media2.fl.yelpcdn.com/bphoto/b765FBMgoUjp0SlBX8t2UA/o.jpg", "is_closed": false, "url": "https://www.yelp.com/biz/churchs-chicken-houston-70?adjust_creative=rZiFgfUX1eajVOVygdFykg&utm_campaign=yelp_api_v3&utm_medium=api_v3_business_search&utm_source=rZiFgfUX1eajVOVygdFykg", "review_count": 7, "categories": [{"alias": "hotdogs", "title": "Fast Food"}, {"alias": "chicken_wings", "title": "Chicken Wings"}], "rating": 1.5, "coordinates": {"latitude": 29.61402, "longitude": -95.41997}, "transactions": ["delivery"], "location": {"address1": "13350 Almeda Rd", "address2": "", "address3": null, "city": "Houston", "zip_code": "77045", "country": "US", "state": "TX", "display_address": ["13350 Almeda Rd", "Houston, TX 77045"]}, "phone": "+17134340916", "display_phone": "(713) 434-0916", "distance": 9768.757195406748}, {"id": "sPamWZ5roaCFD8aRSeMfEw", "alias": "papa-johns-pizza-houston-60", "name": "Papa Johns Pizza", "image_url": "https://s3-media4.fl.yelpcdn.com/bphoto/U6bk1X4Gt2xV5BPBVIMjfA/o.jpg", "is_closed": false, "url": "https://www.yelp.com/biz/papa-johns-pizza-houston-60?adjust_creative=rZiFgfUX1eajVOVygdFykg&utm_campaign=yelp_api_v3&utm_medium=api_v3_business_search&utm_source=rZiFgfUX1eajVOVygdFykg", "review_count": 14, "categories": [{"alias": "pizza", "title": "Pizza"}, {"alias": "chicken_wings", "title": "Chicken Wings"}, {"alias": "hotdogs", "title": "Fast Food"}], "rating": 2.0, "coordinates": {"latitude": 29.613836, "longitude": -95.445072}, "transactions": ["pickup", "delivery"], "price": "$", "location": {"address1": "4458 W Fuqua St", "address2": "Ste 100", "address3": null, "city": "Houston", "zip_code": "77045", "country": "US", "state": "TX", "display_address": ["4458 W Fuqua St", "Ste 100", "Houston, TX 77045"]}, "phone": "+17134347272", "display_phone": "(713) 434-7272", "distance": 8806.494025135275}, {"id": "9ew2dNHGDbi0yb1cm9LpoQ", "alias": "dominos-pizza-missouri-city-6", "name": "Domino's Pizza", "image_url": "https://s3-media3.fl.yelpcdn.com/bphoto/nq66miKM3nIXT-KcFRF3Dg/o.jpg", "is_closed": false, "url": "https://www.yelp.com/biz/dominos-pizza-missouri-city-6?adjust_creative=rZiFgfUX1eajVOVygdFykg&utm_campaign=yelp_api_v3&utm_medium=api_v3_business_search&utm_source=rZiFgfUX1eajVOVygdFykg", "review_count": 21, "categories": [{"alias": "pizza", "title": "Pizza"}, {"alias": "chicken_wings", "title": "Chicken Wings"}, {"alias": "sandwiches", "title": "Sandwiches"}], "rating": 3.0, "coordinates": {"latitude": 29.5632714, "longitude": -95.5620396}, "transactions": [], "price": "$", "location": {"address1": "6309 Highway 6", "address2": "", "address3": "", "city": "Missouri City", "zip_code": "77459", "country": "US", "state": "TX", "display_address": ["6309 Highway 6", "Missouri City, TX 77459"]}, "phone": "+12814992559", "display_phone": "(281) 499-2559", "distance": 9320.962773826877}, {"id": "xorlfSZBF-_R2fkbBVkj6g", "alias": "another-broken-egg-cafe-pearland-2", "name": "Another Broken Egg Cafe", "image_url": "https://s3-media1.fl.yelpcdn.com/bphoto/Do3snKv7JvStWkI4zW7HaQ/o.jpg", "is_closed": false, "url": "https://www.yelp.com/biz/another-broken-egg-cafe-pearland-2?adjust_creative=rZiFgfUX1eajVOVygdFykg&utm_campaign=yelp_api_v3&utm_medium=api_v3_business_search&utm_source=rZiFgfUX1eajVOVygdFykg", "review_count": 934, "categories": [{"alias": "breakfast_brunch", "title": "Breakfast & Brunch"}, {"alias": "cafes", "title": "Cafes"}, {"alias": "tradamerican", "title": "American (Traditional)"}], "rating": 4.0, "coordinates": {"latitude": 29.56129533, "longitude": -95.38639563}, "transactions": ["pickup", "delivery"], "price": "$$", "location": {"address1": "2510 Smith Ranch Rd", "address2": "Ste 109", "address3": null, "city": "Pearland", "zip_code": "77584", "country": "US", "state": "TX", "display_address": ["2510 Smith Ranch Rd", "Ste 109", "Pearland, TX 77584"]}, "phone": "+17134363447", "display_phone": "(713) 436-3447", "distance": 8488.53284158695}, {"id": "0MZ-wEVvk323ZK0-0WbVUg", "alias": "popeyes-louisiana-kitchen-houston-39", "name": "Popeyes Louisiana Kitchen", "image_url": "https://s3-media2.fl.yelpcdn.com/bphoto/NEgUlnOgHngTqc4-v8wn4Q/o.jpg", "is_closed": false, "url": "https://www.yelp.com/biz/popeyes-louisiana-kitchen-houston-39?adjust_creative=rZiFgfUX1eajVOVygdFykg&utm_campaign=yelp_api_v3&utm_medium=api_v3_business_search&utm_source=rZiFgfUX1eajVOVygdFykg", "review_count": 30, "categories": [{"alias": "hotdogs", "title": "Fast Food"}, {"alias": "chicken_wings", "title": "Chicken Wings"}], "rating": 1.5, "coordinates": {"latitude": 29.613619, "longitude": -95.446146}, "transactions": ["pickup", "delivery"], "price": "$", "location": {"address1": "4502 W Fuqua St", "address2": "", "address3": "", "city": "Houston", "zip_code": "77045", "country": "US", "state": "TX", "display_address": ["4502 W Fuqua St", "Houston, TX 77045"]}, "phone": "+17134339434", "display_phone": "(713) 433-9434", "distance": 8756.428989370077}, {"id": "rPZ1hofbqiKiJv7Avy9OZg", "alias": "churchs-chicken-missouri-city-3", "name": "Church's Chicken", "image_url": "https://s3-media2.fl.yelpcdn.com/bphoto/-P0NliGXZE1Qkg6-TeyByQ/o.jpg", "is_closed": false, "url": "https://www.yelp.com/biz/churchs-chicken-missouri-city-3?adjust_creative=rZiFgfUX1eajVOVygdFykg&utm_campaign=yelp_api_v3&utm_medium=api_v3_business_search&utm_source=rZiFgfUX1eajVOVygdFykg", "review_count": 13, "categories": [{"alias": "hotdogs", "title": "Fast Food"}, {"alias": "chicken_wings", "title": "Chicken Wings"}], "rating": 2.0, "coordinates": {"latitude": 29.59827, "longitude": -95.526504}, "transactions": ["pickup", "delivery"], "location": {"address1": "1949 FM 2234", "address2": "", "address3": "", "city": "Missouri City", "zip_code": "77489", "country": "US", "state": "TX", "display_address": ["1949 FM 2234", "Missouri City, TX 77489"]}, "phone": "+12814994694", "display_phone": "(281) 499-4694", "distance": 8692.121485327098}, {"id": "NNzuOETfN8mkgRVtdCvIzw", "alias": "pizza-hut-houston-68", "name": "Pizza Hut", "image_url": "https://s3-media4.fl.yelpcdn.com/bphoto/ZutlZV_jVQ7WesQ1dxn5Ag/o.jpg", "is_closed": false, "url": "https://www.yelp.com/biz/pizza-hut-houston-68?adjust_creative=rZiFgfUX1eajVOVygdFykg&utm_campaign=yelp_api_v3&utm_medium=api_v3_business_search&utm_source=rZiFgfUX1eajVOVygdFykg", "review_count": 24, "categories": [{"alias": "pizza", "title": "Pizza"}, {"alias": "chicken_wings", "title": "Chicken Wings"}, {"alias": "hotdogs", "title": "Fast Food"}], "rating": 1.0, "coordinates": {"latitude": 29.61325, "longitude": -95.44322}, "transactions": ["pickup", "delivery"], "price": "$", "location": {"address1": "4407 W Fuqua Rd", "address2": "Ste H", "address3": "", "city": "Houston", "zip_code": "77053", "country": "US", "state": "TX", "display_address": ["4407 W Fuqua Rd", "Ste H", "Houston, TX 77053"]}, "phone": "+17134345566", "display_phone": "(713) 434-5566", "distance": 8781.254687819597}, {"id": "dnohkSIXdjlbrOTnGQYW6A", "alias": "pizza-hut-pearland-4", "name": "Pizza Hut", "image_url": "https://s3-media2.fl.yelpcdn.com/bphoto/sZTCf3Wh7GUoH-nEblCuvw/o.jpg", "is_closed": false, "url": "https://www.yelp.com/biz/pizza-hut-pearland-4?adjust_creative=rZiFgfUX1eajVOVygdFykg&utm_campaign=yelp_api_v3&utm_medium=api_v3_business_search&utm_source=rZiFgfUX1eajVOVygdFykg", "review_count": 51, "categories": [{"alias": "pizza", "title": "Pizza"}, {"alias": "chicken_wings", "title": "Chicken Wings"}, {"alias": "hotdogs", "title": "Fast Food"}], "rating": 1.5, "coordinates": {"latitude": 29.580286, "longitude": -95.395894}, "transactions": ["pickup", "delivery"], "price": "$", "location": {"address1": "11601 Shadow Creek Pkwy", "address2": "Ste 119", "address3": null, "city": "Pearland", "zip_code": "77584", "country": "US", "state": "TX", "display_address": ["11601 Shadow Creek Pkwy", "Ste 119", "Pearland, TX 77584"]}, "phone": "+17134362217", "display_phone": "(713) 436-2217", "distance": 8580.773399382353}, {"id": "1h7k5qt9-g1XfpodPvzzag", "alias": "kfc-pearland-6", "name": "KFC", "image_url": "https://s3-media1.fl.yelpcdn.com/bphoto/73gYRbKPRgfCtYbrwwYbFA/o.jpg", "is_closed": false, "url": "https://www.yelp.com/biz/kfc-pearland-6?adjust_creative=rZiFgfUX1eajVOVygdFykg&utm_campaign=yelp_api_v3&utm_medium=api_v3_business_search&utm_source=rZiFgfUX1eajVOVygdFykg", "review_count": 48, "categories": [{"alias": "hotdogs", "title": "Fast Food"}, {"alias": "chicken_wings", "title": "Chicken Wings"}, {"alias": "chickenshop", "title": "Chicken Shop"}], "rating": 1.5, "coordinates": {"latitude": 29.5556, "longitude": -95.37636}, "transactions": ["pickup", "delivery"], "price": "$", "location": {"address1": "10034 Broadway St", "address2": "", "address3": "", "city": "Pearland", "zip_code": "77584", "country": "US", "state": "TX", "display_address": ["10034 Broadway St", "Pearland, TX 77584"]}, "phone": "+17134365311", "display_phone": "(713) 436-5311", "distance": 9260.085289939469}, {"id": "Ojj0V-d63wNJbXOqOOiE3w", "alias": "hooties-bait-and-tackle-houston-2", "name": "Hootie's Bait & Tackle", "image_url": "", "is_closed": false, "url": "https://www.yelp.com/biz/hooties-bait-and-tackle-houston-2?adjust_creative=rZiFgfUX1eajVOVygdFykg&utm_campaign=yelp_api_v3&utm_medium=api_v3_business_search&utm_source=rZiFgfUX1eajVOVygdFykg", "review_count": 1, "categories": [{"alias": "fooddeliveryservices", "title": "Food Delivery Services"}, {"alias": "seafood", "title": "Seafood"}, {"alias": "tacos", "title": "Tacos"}], "rating": 5.0, "coordinates": {"latitude": 29.608448005636337, "longitude": -95.38664925701431}, "transactions": [], "location": {"address1": null, "address2": null, "address3": null, "city": "Houston", "zip_code": "77047", "country": "US", "state": "TX", "display_address": ["Houston, TX 77047"]}, "phone": "+17134360108", "display_phone": "(713) 436-0108", "distance": 11257.816026581406}, {"id": "5igTgroixh0PgLNKNis9TQ", "alias": "churchs-chicken-stafford-2", "name": "Church's Chicken", "image_url": "https://s3-media2.fl.yelpcdn.com/bphoto/rj7NuBjE69hr2eSh5YDLMA/o.jpg", "is_closed": false, "url": "https://www.yelp.com/biz/churchs-chicken-stafford-2?adjust_creative=rZiFgfUX1eajVOVygdFykg&utm_campaign=yelp_api_v3&utm_medium=api_v3_business_search&utm_source=rZiFgfUX1eajVOVygdFykg", "review_count": 11, "categories": [{"alias": "hotdogs", "title": "Fast Food"}, {"alias": "chicken_wings", "title": "Chicken Wings"}], "rating": 2.0, "coordinates": {"latitude": 29.6160671, "longitude": -95.5577221}, "transactions": ["pickup", "delivery"], "price": "$", "location": {"address1": "3200 S Main", "address2": "", "address3": "", "city": "Stafford", "zip_code": "77477", "country": "US", "state": "TX", "display_address": ["3200 S Main", "Stafford, TX 77477"]}, "phone": "+12814992014", "display_phone": "(281) 499-2014", "distance": 12180.867318091809}, {"id": "NsS22MiMWh5d9qXhiPZKpg", "alias": "marcos-pizza-stafford", "name": "Marco's Pizza", "image_url": "https://s3-media2.fl.yelpcdn.com/bphoto/N_t-lvuDOvbTdIahUbaxew/o.jpg", "is_closed": false, "url": "https://www.yelp.com/biz/marcos-pizza-stafford?adjust_creative=rZiFgfUX1eajVOVygdFykg&utm_campaign=yelp_api_v3&utm_medium=api_v3_business_search&utm_source=rZiFgfUX1eajVOVygdFykg", "review_count": 39, "categories": [{"alias": "pizza", "title": "Pizza"}, {"alias": "italian", "title": "Italian"}], "rating": 2.5, "coordinates": {"latitude": 29.62048, "longitude": -95.56927}, "transactions": ["pickup", "delivery"], "price": "$$", "location": {"address1": "3623 S Main St", "address2": "Ste 113", "address3": "", "city": "Stafford", "zip_code": "77477", "country": "US", "state": "TX", "display_address": ["3623 S Main St", "Ste 113", "Stafford, TX 77477"]}, "phone": "+18329871455", "display_phone": "(832) 987-1455", "distance": 13319.3663627249}, {"id": "aOI3SU9YdRpw_pX6sA5rIw", "alias": "papa-johns-pizza-houston-36", "name": "Papa Johns Pizza", "image_url": "https://s3-media1.fl.yelpcdn.com/bphoto/oYaEzGM8PH2DOGmnRftq8g/o.jpg", "is_closed": false, "url": "https://www.yelp.com/biz/papa-johns-pizza-houston-36?adjust_creative=rZiFgfUX1eajVOVygdFykg&utm_campaign=yelp_api_v3&utm_medium=api_v3_business_search&utm_source=rZiFgfUX1eajVOVygdFykg", "review_count": 25, "categories": [{"alias": "pizza", "title": "Pizza"}, {"alias": "chicken_wings", "title": "Chicken Wings"}, {"alias": "hotdogs", "title": "Fast Food"}], "rating": 1.5, "coordinates": {"latitude": 29.621776, "longitude": -95.508682}, "transactions": ["pickup", "delivery"], "price": "$", "location": {"address1": "8420 S Sam Houston Pkwy W", "address2": "Ste 250", "address3": "", "city": "Houston", "zip_code": "77085", "country": "US", "state": "TX", "display_address": ["8420 S Sam Houston Pkwy W", "Ste 250", "Houston, TX 77085"]}, "phone": "+17137218383", "display_phone": "(713) 721-8383", "distance": 10082.899510905045}, {"id": "kWBPgei4AjJawkT21zd2mA", "alias": "pizza-hut-pearland", "name": "Pizza Hut", "image_url": "https://s3-media3.fl.yelpcdn.com/bphoto/oWeRyTB_fubDCvZOPRlJlw/o.jpg", "is_closed": false, "url": "https://www.yelp.com/biz/pizza-hut-pearland?adjust_creative=rZiFgfUX1eajVOVygdFykg&utm_campaign=yelp_api_v3&utm_medium=api_v3_business_search&utm_source=rZiFgfUX1eajVOVygdFykg", "review_count": 32, "categories": [{"alias": "pizza", "title": "Pizza"}, {"alias": "chicken_wings", "title": "Chicken Wings"}, {"alias": "hotdogs", "title": "Fast Food"}], "rating": 2.0, "coordinates": {"latitude": 29.555338, "longitude": -95.383233}, "transactions": ["pickup", "delivery"], "price": "$", "location": {"address1": "10504 Broadway St", "address2": "Ste 100", "address3": "", "city": "Pearland", "zip_code": "77584", "country": "US", "state": "TX", "display_address": ["10504 Broadway St", "Ste 100", "Pearland, TX 77584"]}, "phone": "+17134361014", "display_phone": "(713) 436-1014", "distance": 8602.85275435028}, {"id": "QwzgmrTA6mEnSChG-wbkQA", "alias": "fish-city-grill-pearland", "name": "Fish City Grill", "image_url": "https://s3-media4.fl.yelpcdn.com/bphoto/oY5Qp9RfBV-s4a0URXLChg/o.jpg", "is_closed": false, "url": "https://www.yelp.com/biz/fish-city-grill-pearland?adjust_creative=rZiFgfUX1eajVOVygdFykg&utm_campaign=yelp_api_v3&utm_medium=api_v3_business_search&utm_source=rZiFgfUX1eajVOVygdFykg", "review_count": 355, "categories": [{"alias": "seafood", "title": "Seafood"}, {"alias": "fishnchips", "title": "Fish & Chips"}, {"alias": "tradamerican", "title": "American (Traditional)"}], "rating": 4.0, "coordinates": {"latitude": 29.553147269312216, "longitude": -95.39422250431798}, "transactions": ["delivery"], "price": "$$", "location": {"address1": "11200 Broadway St", "address2": "Ste 380", "address3": "", "city": "Pearland", "zip_code": "77584", "country": "US", "state": "TX", "display_address": ["11200 Broadway St", "Ste 380", "Pearland, TX 77584"]}, "phone": "+17133401493", "display_phone": "(713) 340-1493", "distance": 7514.11899216591}, {"id": "Ds7cJvBK-OjVlxAwUAeUOA", "alias": "ny-chinese-cafe-missouri-city", "name": "NY Chinese Cafe", "image_url": "https://s3-media1.fl.yelpcdn.com/bphoto/ER4tvbOrd8nBMzZAi2j-aQ/o.jpg", "is_closed": false, "url": "https://www.yelp.com/biz/ny-chinese-cafe-missouri-city?adjust_creative=rZiFgfUX1eajVOVygdFykg&utm_campaign=yelp_api_v3&utm_medium=api_v3_business_search&utm_source=rZiFgfUX1eajVOVygdFykg", "review_count": 73, "categories": [{"alias": "chinese", "title": "Chinese"}], "rating": 3.5, "coordinates": {"latitude": 29.537373, "longitude": -95.537112}, "transactions": ["delivery"], "price": "$", "location": {"address1": "8880 Hwy 6", "address2": "Ste 150", "address3": "", "city": "Missouri City", "zip_code": "77459", "country": "US", "state": "TX", "display_address": ["8880 Hwy 6", "Ste 150", "Missouri City, TX 77459"]}, "phone": "+12817781555", "display_phone": "(281) 778-1555", "distance": 6510.277407589411}, {"id": "7nxJH8n-W8TiWKk2QTabng", "alias": "popeyes-louisiana-kitchen-houston-81", "name": "Popeyes Louisiana Kitchen", "image_url": "https://s3-media1.fl.yelpcdn.com/bphoto/qnd3XeGnLayRMnxtbv0EJw/o.jpg", "is_closed": false, "url": "https://www.yelp.com/biz/popeyes-louisiana-kitchen-houston-81?adjust_creative=rZiFgfUX1eajVOVygdFykg&utm_campaign=yelp_api_v3&utm_medium=api_v3_business_search&utm_source=rZiFgfUX1eajVOVygdFykg", "review_count": 13, "categories": [{"alias": "hotdogs", "title": "Fast Food"}, {"alias": "chicken_wings", "title": "Chicken Wings"}], "rating": 2.5, "coordinates": {"latitude": 29.6131297, "longitude": -95.38717558}, "transactions": ["delivery"], "location": {"address1": "Almeda Genoa Near Hwy 288", "address2": "", "address3": null, "city": "Houston", "zip_code": "77047", "country": "US", "state": "TX", "display_address": ["Almeda Genoa Near Hwy 288", "Houston, TX 77047"]}, "phone": "+17134348686", "display_phone": "(713) 434-8686", "distance": 11769.002323316092}, {"id": "-Fu1P9JkZ_aXCLzO9fbyCA", "alias": "papa-johns-pizza-missouri-city", "name": "Papa Johns Pizza", "image_url": "https://s3-media3.fl.yelpcdn.com/bphoto/b0_-Hkll2jR1bP26R52Whg/o.jpg", "is_closed": false, "url": "https://www.yelp.com/biz/papa-johns-pizza-missouri-city?adjust_creative=rZiFgfUX1eajVOVygdFykg&utm_campaign=yelp_api_v3&utm_medium=api_v3_business_search&utm_source=rZiFgfUX1eajVOVygdFykg", "review_count": 32, "categories": [{"alias": "pizza", "title": "Pizza"}, {"alias": "chicken_wings", "title": "Chicken Wings"}, {"alias": "hotdogs", "title": "Fast Food"}], "rating": 2.0, "coordinates": {"latitude": 29.563157, "longitude": -95.563249}, "transactions": ["delivery", "pickup"], "price": "$", "location": {"address1": "6262 Highway 6", "address2": "", "address3": "", "city": "Missouri City", "zip_code": "77459", "country": "US", "state": "TX", "display_address": ["6262 Highway 6", "Missouri City, TX 77459"]}, "phone": "+12812083737", "display_phone": "(281) 208-3737", "distance": 9476.776422777753}, {"id": "lXzyjXkVtOc7x6eaCHAajw", "alias": "pizza-hut-missouri-city-8", "name": "Pizza Hut", "image_url": "https://s3-media3.fl.yelpcdn.com/bphoto/y81pgwz_Z0FKmIfz_fc3YQ/o.jpg", "is_closed": false, "url": "https://www.yelp.com/biz/pizza-hut-missouri-city-8?adjust_creative=rZiFgfUX1eajVOVygdFykg&utm_campaign=yelp_api_v3&utm_medium=api_v3_business_search&utm_source=rZiFgfUX1eajVOVygdFykg", "review_count": 33, "categories": [{"alias": "pizza", "title": "Pizza"}, {"alias": "chicken_wings", "title": "Chicken Wings"}, {"alias": "hotdogs", "title": "Fast Food"}], "rating": 1.5, "coordinates": {"latitude": 29.553863, "longitude": -95.555595}, "transactions": ["delivery"], "price": "$", "location": {"address1": "7110 Hwy 6", "address2": "Ste A", "address3": "", "city": "Missouri City", "zip_code": "77459", "country": "US", "state": "TX", "display_address": ["7110 Hwy 6", "Ste A", "Missouri City, TX 77459"]}, "phone": "+12812083100", "display_phone": "(281) 208-3100", "distance": 8487.435701482098}, {"id": "exR9mzELIFfCDkCYkEmpIQ", "alias": "dominos-pizza-missouri-city-3", "name": "Domino's Pizza", "image_url": "https://s3-media2.fl.yelpcdn.com/bphoto/kbi-MxYPto2uE1moP3dOPA/o.jpg", "is_closed": false, "url": "https://www.yelp.com/biz/dominos-pizza-missouri-city-3?adjust_creative=rZiFgfUX1eajVOVygdFykg&utm_campaign=yelp_api_v3&utm_medium=api_v3_business_search&utm_source=rZiFgfUX1eajVOVygdFykg", "review_count": 33, "categories": [{"alias": "pizza", "title": "Pizza"}, {"alias": "chicken_wings", "title": "Chicken Wings"}, {"alias": "sandwiches", "title": "Sandwiches"}], "rating": 2.0, "coordinates": {"latitude": 29.59185, "longitude": -95.52584}, "transactions": [], "price": "$", "location": {"address1": "2435 Texas Pkwy", "address2": "", "address3": "", "city": "Missouri City", "zip_code": "77489", "country": "US", "state": "TX", "display_address": ["2435 Texas Pkwy", "Missouri City, TX 77489"]}, "phone": "+12812080100", "display_phone": "(281) 208-0100", "distance": 8082.222651492157}, {"id": "3P5pq-su7-v7mVu-hmlxoQ", "alias": "texas-roadhouse-pearland-2", "name": "Texas Roadhouse", "image_url": "https://s3-media2.fl.yelpcdn.com/bphoto/ga-PTlY5pZrKmHnAKqw1lA/o.jpg", "is_closed": false, "url": "https://www.yelp.com/biz/texas-roadhouse-pearland-2?adjust_creative=rZiFgfUX1eajVOVygdFykg&utm_campaign=yelp_api_v3&utm_medium=api_v3_business_search&utm_source=rZiFgfUX1eajVOVygdFykg", "review_count": 297, "categories": [{"alias": "steak", "title": "Steakhouses"}, {"alias": "bbq", "title": "Barbeque"}, {"alias": "tradamerican", "title": "American (Traditional)"}], "rating": 3.0, "coordinates": {"latitude": 29.56014196414807, "longitude": -95.38647385285053}, "transactions": [], "price": "$$", "location": {"address1": "2526 Smith Ranch Rd", "address2": "", "address3": "", "city": "Pearland", "zip_code": "77584", "country": "US", "state": "TX", "display_address": ["2526 Smith Ranch Rd", "Pearland, TX 77584"]}, "phone": "+17134368444", "display_phone": "(713) 436-8444", "distance": 8442.438349031772}, {"id": "TWMwSYkGSdsFboGDWdq90A", "alias": "papa-johns-pizza-pearland", "name": "Papa Johns Pizza", "image_url": "https://s3-media2.fl.yelpcdn.com/bphoto/YNbPXB_4y596duH7YrxytA/o.jpg", "is_closed": false, "url": "https://www.yelp.com/biz/papa-johns-pizza-pearland?adjust_creative=rZiFgfUX1eajVOVygdFykg&utm_campaign=yelp_api_v3&utm_medium=api_v3_business_search&utm_source=rZiFgfUX1eajVOVygdFykg", "review_count": 50, "categories": [{"alias": "pizza", "title": "Pizza"}, {"alias": "chicken_wings", "title": "Chicken Wings"}, {"alias": "hotdogs", "title": "Fast Food"}], "rating": 2.0, "coordinates": {"latitude": 29.556666, "longitude": -95.379747}, "transactions": ["delivery", "pickup"], "price": "$", "location": {"address1": "10223 Broadway St", "address2": "Ste S", "address3": "", "city": "Pearland", "zip_code": "77584", "country": "US", "state": "TX", "display_address": ["10223 Broadway St", "Ste S", "Pearland, TX 77584"]}, "phone": "+12814127272", "display_phone": "(281) 412-7272", "distance": 8971.510555034885}, {"id": "URFm4E8ajJU75UH8bf36CA", "alias": "teaze-daiquiri-lounge-missouri-city", "name": "Tea'ze Daiquiri Lounge", "image_url": "https://s3-media3.fl.yelpcdn.com/bphoto/1yOnIkkEkmml4K0_pHY9Qg/o.jpg", "is_closed": false, "url": "https://www.yelp.com/biz/teaze-daiquiri-lounge-missouri-city?adjust_creative=rZiFgfUX1eajVOVygdFykg&utm_campaign=yelp_api_v3&utm_medium=api_v3_business_search&utm_source=rZiFgfUX1eajVOVygdFykg", "review_count": 57, "categories": [{"alias": "drivethrubars", "title": "Drive-Thru Bars"}], "rating": 4.0, "coordinates": {"latitude": 29.5982381, "longitude": -95.5266451}, "transactions": ["delivery", "pickup"], "price": "$", "location": {"address1": "1975 Texas Pkwy", "address2": "", "address3": "", "city": "Missouri City", "zip_code": "77489", "country": "US", "state": "TX", "display_address": ["1975 Texas Pkwy", "Missouri City, TX 77489"]}, "phone": "+12819698301", "display_phone": "(281) 969-8301", "distance": 8625.02324545902}, {"id": "Y4A6rBlmmr0itMy-LvM37A", "alias": "la-crawfish-missouri-city", "name": "LA Crawfish", "image_url": "https://s3-media2.fl.yelpcdn.com/bphoto/CHuH_zHiPO87pmeHELx7Xg/o.jpg", "is_closed": false, "url": "https://www.yelp.com/biz/la-crawfish-missouri-city?adjust_creative=rZiFgfUX1eajVOVygdFykg&utm_campaign=yelp_api_v3&utm_medium=api_v3_business_search&utm_source=rZiFgfUX1eajVOVygdFykg", "review_count": 51, "categories": [{"alias": "seafood", "title": "Seafood"}, {"alias": "cajun", "title": "Cajun/Creole"}, {"alias": "vietnamese", "title": "Vietnamese"}], "rating": 2.5, "coordinates": {"latitude": 29.5662578647145, "longitude": -95.56360560234133}, "transactions": ["delivery"], "price": "$$", "location": {"address1": "3823 FM 1092 Rd", "address2": "", "address3": null, "city": "Missouri City", "zip_code": "77459", "country": "US", "state": "TX", "display_address": ["3823 FM 1092 Rd", "Missouri City, TX 77459"]}, "phone": "+12812087759", "display_phone": "(281) 208-7759", "distance": 9615.046672793413}, {"id": "pyLrj8vwMNSxsZNfidYzJQ", "alias": "chilis-pearland-3", "name": "Chili's", "image_url": "https://s3-media3.fl.yelpcdn.com/bphoto/NKFDl2QTtR9ZFHDuu_o3Sw/o.jpg", "is_closed": false, "url": "https://www.yelp.com/biz/chilis-pearland-3?adjust_creative=rZiFgfUX1eajVOVygdFykg&utm_campaign=yelp_api_v3&utm_medium=api_v3_business_search&utm_source=rZiFgfUX1eajVOVygdFykg", "review_count": 191, "categories": [{"alias": "tex-mex", "title": "Tex-Mex"}, {"alias": "bars", "title": "Bars"}, {"alias": "tradamerican", "title": "American (Traditional)"}], "rating": 2.0, "coordinates": {"latitude": 29.5538, "longitude": -95.38581}, "transactions": ["delivery", "pickup"], "price": "$$", "location": {"address1": "3030 Silverlake Village Dr", "address2": "", "address3": "", "city": "Pearland", "zip_code": "77584", "country": "US", "state": "TX", "display_address": ["3030 Silverlake Village Dr", "Pearland, TX 77584"]}, "phone": "+17134364790", "display_phone": "(713) 436-4790", "distance": 8369.004280882631}, {"id": "4dXZ-9CdrzSs6QKCsVsFtg", "alias": "pei-wei-asian-kitchen-pearland-5", "name": "Pei Wei Asian Kitchen", "image_url": "https://s3-media2.fl.yelpcdn.com/bphoto/yJdFH-vP4a_U6GGHaUjlbQ/o.jpg", "is_closed": false, "url": "https://www.yelp.com/biz/pei-wei-asian-kitchen-pearland-5?adjust_creative=rZiFgfUX1eajVOVygdFykg&utm_campaign=yelp_api_v3&utm_medium=api_v3_business_search&utm_source=rZiFgfUX1eajVOVygdFykg", "review_count": 128, "categories": [{"alias": "asianfusion", "title": "Asian Fusion"}, {"alias": "chinese", "title": "Chinese"}, {"alias": "gluten_free", "title": "Gluten-Free"}], "rating": 3.0, "coordinates": {"latitude": 29.55523, "longitude": -95.39476853189063}, "transactions": ["delivery", "pickup"], "price": "$", "location": {"address1": "11302 Broadway St", "address2": "", "address3": "", "city": "Pearland", "zip_code": "77584", "country": "US", "state": "TX", "display_address": ["11302 Broadway St", "Pearland, TX 77584"]}, "phone": "+17134363840", "display_phone": "(713) 436-3840", "distance": 7519.644007330724}, {"id": "BvZzEYCyjtoD9G1vFDSNaw", "alias": "longhorn-steakhouse-pearland-3", "name": "LongHorn Steakhouse", "image_url": "https://s3-media2.fl.yelpcdn.com/bphoto/RNqddoHp6e1H2mLfN3mplg/o.jpg", "is_closed": false, "url": "https://www.yelp.com/biz/longhorn-steakhouse-pearland-3?adjust_creative=rZiFgfUX1eajVOVygdFykg&utm_campaign=yelp_api_v3&utm_medium=api_v3_business_search&utm_source=rZiFgfUX1eajVOVygdFykg", "review_count": 166, "categories": [{"alias": "steak", "title": "Steakhouses"}, {"alias": "tradamerican", "title": "American (Traditional)"}, {"alias": "bbq", "title": "Barbeque"}], "rating": 3.5, "coordinates": {"latitude": 29.557522, "longitude": -95.389594}, "transactions": [], "price": "$$", "location": {"address1": "2809 Business Center Dr", "address2": "", "address3": "", "city": "Pearland", "zip_code": "77584", "country": "US", "state": "TX", "display_address": ["2809 Business Center Dr", "Pearland, TX 77584"]}, "phone": "+17133400104", "display_phone": "(713) 340-0104", "distance": 8070.059985675524}, {"id": "pfV1KmCG7e2jzgvk4aoVsA", "alias": "marcos-pizza-missouri-city", "name": "Marco's Pizza", "image_url": "https://s3-media2.fl.yelpcdn.com/bphoto/bd-8DgmPWIG_ugcCk0Wpiw/o.jpg", "is_closed": false, "url": "https://www.yelp.com/biz/marcos-pizza-missouri-city?adjust_creative=rZiFgfUX1eajVOVygdFykg&utm_campaign=yelp_api_v3&utm_medium=api_v3_business_search&utm_source=rZiFgfUX1eajVOVygdFykg", "review_count": 46, "categories": [{"alias": "pizza", "title": "Pizza"}, {"alias": "salad", "title": "Salad"}, {"alias": "italian", "title": "Italian"}], "rating": 3.0, "coordinates": {"latitude": 29.56443633443024, "longitude": -95.56267252581202}, "transactions": ["delivery", "pickup"], "price": "$$", "location": {"address1": "6245 Hwy 6", "address2": "Ste 300", "address3": "", "city": "Missouri City", "zip_code": "77459", "country": "US", "state": "TX", "display_address": ["6245 Hwy 6", "Ste 300", "Missouri City, TX 77459"]}, "phone": "+18325396900", "display_phone": "(832) 539-6900", "distance": 9464.232769239501}, {"id": "VV9ummQ3Drw-nP1z_YHfhw", "alias": "akashi-missouri-city", "name": "Akashi", "image_url": "https://s3-media2.fl.yelpcdn.com/bphoto/pBcWPuDqRmY4m6rGSQImUQ/o.jpg", "is_closed": false, "url": "https://www.yelp.com/biz/akashi-missouri-city?adjust_creative=rZiFgfUX1eajVOVygdFykg&utm_campaign=yelp_api_v3&utm_medium=api_v3_business_search&utm_source=rZiFgfUX1eajVOVygdFykg", "review_count": 179, "categories": [{"alias": "sushi", "title": "Sushi Bars"}, {"alias": "asianfusion", "title": "Asian Fusion"}], "rating": 3.5, "coordinates": {"latitude": 29.5388633807602, "longitude": -95.5376235349947}, "transactions": ["delivery"], "price": "$$", "location": {"address1": "8700 Hwy 6", "address2": "Ste 100", "address3": "", "city": "Missouri City", "zip_code": "77459", "country": "US", "state": "TX", "display_address": ["8700 Hwy 6", "Ste 100", "Missouri City, TX 77459"]}, "phone": "+12817788835", "display_phone": "(281) 778-8835", "distance": 6561.145657644757}, {"id": "Qf0a6XavDoEKUA63onM50Q", "alias": "little-caesars-pizza-houston-12", "name": "Little Caesars Pizza", "image_url": "https://s3-media3.fl.yelpcdn.com/bphoto/EeHvSk-I2mrjDjv5LzmGFQ/o.jpg", "is_closed": false, "url": "https://www.yelp.com/biz/little-caesars-pizza-houston-12?adjust_creative=rZiFgfUX1eajVOVygdFykg&utm_campaign=yelp_api_v3&utm_medium=api_v3_business_search&utm_source=rZiFgfUX1eajVOVygdFykg", "review_count": 16, "categories": [{"alias": "pizza", "title": "Pizza"}, {"alias": "hotdogs", "title": "Fast Food"}], "rating": 1.5, "coordinates": {"latitude": 29.595360827509097, "longitude": -95.46686667055225}, "transactions": ["delivery"], "price": "$", "location": {"address1": "15917-A South Post Oak", "address2": null, "address3": null, "city": "Houston", "zip_code": "77053", "country": "US", "state": "TX", "display_address": ["15917-A South Post Oak", "Houston, TX 77053"]}, "phone": "+12818359555", "display_phone": "(281) 835-9555", "distance": 6428.013220587146}, {"id": "p2i85i7_6FUyGuMWZtGWRA", "alias": "timmy-chan-restaurant-houston", "name": "Timmy Chan Restaurant", "image_url": "https://s3-media1.fl.yelpcdn.com/bphoto/2fwGyKrdWhc5-KKk2IBlhA/o.jpg", "is_closed": false, "url": "https://www.yelp.com/biz/timmy-chan-restaurant-houston?adjust_creative=rZiFgfUX1eajVOVygdFykg&utm_campaign=yelp_api_v3&utm_medium=api_v3_business_search&utm_source=rZiFgfUX1eajVOVygdFykg", "review_count": 11, "categories": [{"alias": "chinese", "title": "Chinese"}], "rating": 3.0, "coordinates": {"latitude": 29.61385, "longitude": -95.44157}, "transactions": [], "price": "$$", "location": {"address1": "4208 W Fuqua St", "address2": "", "address3": "", "city": "Houston", "zip_code": "77045", "country": "US", "state": "TX", "display_address": ["4208 W Fuqua St", "Houston, TX 77045"]}, "phone": "+17134138888", "display_phone": "(713) 413-8888", "distance": 8900.665617334078}, {"id": "EmREQPA2Qcwklm-sIeVHsQ", "alias": "hungry-farmer-bar-b-q-houston-3", "name": "Hungry Farmer Bar-B-Q", "image_url": "https://s3-media3.fl.yelpcdn.com/bphoto/tyNqDqyVoegFedB3Ipnwlg/o.jpg", "is_closed": false, "url": "https://www.yelp.com/biz/hungry-farmer-bar-b-q-houston-3?adjust_creative=rZiFgfUX1eajVOVygdFykg&utm_campaign=yelp_api_v3&utm_medium=api_v3_business_search&utm_source=rZiFgfUX1eajVOVygdFykg", "review_count": 84, "categories": [{"alias": "bbq", "title": "Barbeque"}, {"alias": "desserts", "title": "Desserts"}, {"alias": "tradamerican", "title": "American (Traditional)"}], "rating": 3.5, "coordinates": {"latitude": 29.615284, "longitude": -95.465497}, "transactions": ["delivery", "pickup"], "price": "$$", "location": {"address1": "14530 S Post Oak Rd", "address2": "", "address3": "", "city": "Houston", "zip_code": "77045", "country": "US", "state": "TX", "display_address": ["14530 S Post Oak Rd", "Houston, TX 77045"]}, "phone": "+17134131388", "display_phone": "(713) 413-1388", "distance": 8642.505679312699}, {"id": "oliBRPtX4bZOoD3h4Oz8vQ", "alias": "little-caesars-pizza-pearland", "name": "Little Caesars Pizza", "image_url": "https://s3-media3.fl.yelpcdn.com/bphoto/wm3MbBTiUGqXkvvZREwv3Q/o.jpg", "is_closed": false, "url": "https://www.yelp.com/biz/little-caesars-pizza-pearland?adjust_creative=rZiFgfUX1eajVOVygdFykg&utm_campaign=yelp_api_v3&utm_medium=api_v3_business_search&utm_source=rZiFgfUX1eajVOVygdFykg", "review_count": 52, "categories": [{"alias": "pizza", "title": "Pizza"}, {"alias": "hotdogs", "title": "Fast Food"}], "rating": 1.5, "coordinates": {"latitude": 29.5803518, "longitude": -95.3908337}, "transactions": [], "price": "$", "location": {"address1": "11037 Shadow Creek Parkway", "address2": "Ste 111", "address3": "", "city": "Pearland", "zip_code": "77584", "country": "US", "state": "TX", "display_address": ["11037 Shadow Creek Parkway", "Ste 111", "Pearland, TX 77584"]}, "phone": "+17133400209", "display_phone": "(713) 340-0209", "distance": 9025.536286136365}, {"id": "D4o9700v6Jl_7iVTe_EayQ", "alias": "hooties-burger-bar-pearland", "name": "Hootie's Burger Bar", "image_url": "", "is_closed": false, "url": "https://www.yelp.com/biz/hooties-burger-bar-pearland?adjust_creative=rZiFgfUX1eajVOVygdFykg&utm_campaign=yelp_api_v3&utm_medium=api_v3_business_search&utm_source=rZiFgfUX1eajVOVygdFykg", "review_count": 2, "categories": [{"alias": "fooddeliveryservices", "title": "Food Delivery Services"}, {"alias": "burgers", "title": "Burgers"}, {"alias": "tradamerican", "title": "American (Traditional)"}], "rating": 1.5, "coordinates": {"latitude": 29.566557, "longitude": -95.387963}, "transactions": ["delivery"], "location": {"address1": "15838 S Fwy", "address2": null, "address3": null, "city": "Pearland", "zip_code": "77584", "country": "US", "state": "TX", "display_address": ["15838 S Fwy", "Pearland, TX 77584"]}, "phone": "+17134360108", "display_phone": "(713) 436-0108", "distance": 8549.525642398312}, {"id": "f8P06uPQsuqj66XxEcyclQ", "alias": "sonic-drive-in-manvel", "name": "Sonic Drive-In", "image_url": "https://s3-media4.fl.yelpcdn.com/bphoto/t8-D9uuoLX9KjRHxT-yXNg/o.jpg", "is_closed": false, "url": "https://www.yelp.com/biz/sonic-drive-in-manvel?adjust_creative=rZiFgfUX1eajVOVygdFykg&utm_campaign=yelp_api_v3&utm_medium=api_v3_business_search&utm_source=rZiFgfUX1eajVOVygdFykg", "review_count": 23, "categories": [{"alias": "hotdogs", "title": "Fast Food"}, {"alias": "burgers", "title": "Burgers"}, {"alias": "icecream", "title": "Ice Cream & Frozen Yogurt"}], "rating": 2.0, "coordinates": {"latitude": 29.4803928, "longitude": -95.3970842}, "transactions": [], "price": "$", "location": {"address1": "17518 State Highway 6", "address2": null, "address3": null, "city": "MANVEL", "zip_code": "77578", "country": "US", "state": "TX", "display_address": ["17518 State Highway 6", "MANVEL, TX 77578"]}, "phone": "+12814895252", "display_phone": "(281) 489-5252", "distance": 9487.76229155641}, {"id": "F16oXkz5VQzpllz_G9hRVg", "alias": "sonic-drive-in-missouri-city-4", "name": "Sonic Drive-In", "image_url": "https://s3-media3.fl.yelpcdn.com/bphoto/g33HUMin92p6K7z-y2XgjQ/o.jpg", "is_closed": false, "url": "https://www.yelp.com/biz/sonic-drive-in-missouri-city-4?adjust_creative=rZiFgfUX1eajVOVygdFykg&utm_campaign=yelp_api_v3&utm_medium=api_v3_business_search&utm_source=rZiFgfUX1eajVOVygdFykg", "review_count": 59, "categories": [{"alias": "burgers", "title": "Burgers"}, {"alias": "hotdogs", "title": "Fast Food"}, {"alias": "icecream", "title": "Ice Cream & Frozen Yogurt"}], "rating": 1.5, "coordinates": {"latitude": 29.54196, "longitude": -95.54919}, "transactions": ["delivery", "pickup"], "price": "$", "location": {"address1": "6126 Sienna Ranch Rd", "address2": "", "address3": "", "city": "Missouri City", "zip_code": "77459", "country": "US", "state": "TX", "display_address": ["6126 Sienna Ranch Rd", "Missouri City, TX 77459"]}, "phone": "+18325393455", "display_phone": "(832) 539-3455", "distance": 7690.502375038438}, {"id": "7vtj0tAH9BN84IeA31Gc6Q", "alias": "super-6-buffet-missouri-city-2", "name": "Super 6 Buffet", "image_url": "https://s3-media2.fl.yelpcdn.com/bphoto/eU2vHtwSun_K3w6ZOjqVyQ/o.jpg", "is_closed": false, "url": "https://www.yelp.com/biz/super-6-buffet-missouri-city-2?adjust_creative=rZiFgfUX1eajVOVygdFykg&utm_campaign=yelp_api_v3&utm_medium=api_v3_business_search&utm_source=rZiFgfUX1eajVOVygdFykg", "review_count": 129, "categories": [{"alias": "buffets", "title": "Buffets"}, {"alias": "chinese", "title": "Chinese"}, {"alias": "sushi", "title": "Sushi Bars"}], "rating": 3.0, "coordinates": {"latitude": 29.574014, "longitude": -95.570543}, "transactions": ["delivery"], "price": "$$", "location": {"address1": "5425 Hwy 6 S", "address2": "Ste 100", "address3": "", "city": "Missouri City", "zip_code": "77459", "country": "US", "state": "TX", "display_address": ["5425 Hwy 6 S", "Ste 100", "Missouri City, TX 77459"]}, "phone": "+18325396633", "display_phone": "(832) 539-6633", "distance": 10550.176682737678}, {"id": "wEjp4XApDRI0ZsiAlk3gbQ", "alias": "chilis-houston-32", "name": "Chili's", "image_url": "https://s3-media2.fl.yelpcdn.com/bphoto/vR5zlCW1nSiyWloP6o213w/o.jpg", "is_closed": false, "url": "https://www.yelp.com/biz/chilis-houston-32?adjust_creative=rZiFgfUX1eajVOVygdFykg&utm_campaign=yelp_api_v3&utm_medium=api_v3_business_search&utm_source=rZiFgfUX1eajVOVygdFykg", "review_count": 141, "categories": [{"alias": "tradamerican", "title": "American (Traditional)"}, {"alias": "bars", "title": "Bars"}, {"alias": "tex-mex", "title": "Tex-Mex"}], "rating": 2.0, "coordinates": {"latitude": 29.614856058924744, "longitude": -95.49467184417776}, "transactions": ["delivery", "pickup"], "price": "$$", "location": {"address1": "7408 S Sam Houston Pkwy W", "address2": "", "address3": "", "city": "Houston", "zip_code": "77085", "country": "US", "state": "TX", "display_address": ["7408 S Sam Houston Pkwy W", "Houston, TX 77085"]}, "phone": "+17137218347", "display_phone": "(713) 721-8347", "distance": 8919.379584212558}, {"id": "HX2ROY1OvSZr7Rf9kzuXIw", "alias": "raising-canes-chicken-fingers-missouri-city", "name": "Raising Cane's Chicken Fingers", "image_url": "https://s3-media2.fl.yelpcdn.com/bphoto/EaQwWN7aDDM9V-kCfTAugQ/o.jpg", "is_closed": false, "url": "https://www.yelp.com/biz/raising-canes-chicken-fingers-missouri-city?adjust_creative=rZiFgfUX1eajVOVygdFykg&utm_campaign=yelp_api_v3&utm_medium=api_v3_business_search&utm_source=rZiFgfUX1eajVOVygdFykg", "review_count": 70, "categories": [{"alias": "hotdogs", "title": "Fast Food"}], "rating": 2.5, "coordinates": {"latitude": 29.56585, "longitude": -95.56386}, "transactions": ["delivery"], "price": "$", "location": {"address1": "3833 FM 1092 Rd", "address2": "", "address3": null, "city": "Missouri City", "zip_code": "77459", "country": "US", "state": "TX", "display_address": ["3833 FM 1092 Rd", "Missouri City, TX 77459"]}, "phone": "+12814990614", "display_phone": "(281) 499-0614", "distance": 9622.01583973002}, {"id": "nyw2LHrHSHO4tDmh6KlvHw", "alias": "olive-garden-italian-restaurant-pearland-4", "name": "Olive Garden Italian Restaurant", "image_url": "https://s3-media1.fl.yelpcdn.com/bphoto/Csfc5UH0BXpiM2BOv3lDSw/o.jpg", "is_closed": false, "url": "https://www.yelp.com/biz/olive-garden-italian-restaurant-pearland-4?adjust_creative=rZiFgfUX1eajVOVygdFykg&utm_campaign=yelp_api_v3&utm_medium=api_v3_business_search&utm_source=rZiFgfUX1eajVOVygdFykg", "review_count": 131, "categories": [{"alias": "italian", "title": "Italian"}, {"alias": "salad", "title": "Salad"}, {"alias": "soup", "title": "Soup"}], "rating": 3.0, "coordinates": {"latitude": 29.5574893, "longitude": -95.386354}, "transactions": [], "price": "$$", "location": {"address1": "2808 Smith Ranch Rd", "address2": "", "address3": "", "city": "Pearland", "zip_code": "77584", "country": "US", "state": "TX", "display_address": ["2808 Smith Ranch Rd", "Pearland, TX 77584"]}, "phone": "+17134362813", "display_phone": "(713) 436-2813", "distance": 8370.930904005956}, {"id": "hzqgrzPrdGJcQLdf4D9_mQ", "alias": "whataburger-pearland-3", "name": "Whataburger", "image_url": "https://s3-media2.fl.yelpcdn.com/bphoto/2U_g0T1VPRs_rkTpWISXYA/o.jpg", "is_closed": false, "url": "https://www.yelp.com/biz/whataburger-pearland-3?adjust_creative=rZiFgfUX1eajVOVygdFykg&utm_campaign=yelp_api_v3&utm_medium=api_v3_business_search&utm_source=rZiFgfUX1eajVOVygdFykg", "review_count": 102, "categories": [{"alias": "burgers", "title": "Burgers"}, {"alias": "hotdogs", "title": "Fast Food"}], "rating": 2.0, "coordinates": {"latitude": 29.5540446, "longitude": -95.38596315459633}, "transactions": ["delivery"], "price": "$", "location": {"address1": "3040 Silverlake Village Dr", "address2": "", "address3": "", "city": "Pearland", "zip_code": "77584", "country": "US", "state": "TX", "display_address": ["3040 Silverlake Village Dr", "Pearland, TX 77584"]}, "phone": "+17134365177", "display_phone": "(713) 436-5177", "distance": 8315.043320601495}, {"id": "1jYXS5QuWftyafGjDV_zvQ", "alias": "pepperonis-riverstone-missouri-city", "name": "Pepperoni's - Riverstone", "image_url": "https://s3-media3.fl.yelpcdn.com/bphoto/id6Wzdr-wMGUPwLhzl67hg/o.jpg", "is_closed": false, "url": "https://www.yelp.com/biz/pepperonis-riverstone-missouri-city?adjust_creative=rZiFgfUX1eajVOVygdFykg&utm_campaign=yelp_api_v3&utm_medium=api_v3_business_search&utm_source=rZiFgfUX1eajVOVygdFykg", "review_count": 60, "categories": [{"alias": "pizza", "title": "Pizza"}], "rating": 3.5, "coordinates": {"latitude": 29.5701773092884, "longitude": -95.5687256755524}, "transactions": ["delivery", "pickup"], "price": "$", "location": {"address1": "5932 Hwy 6 S", "address2": "", "address3": "", "city": "Missouri City", "zip_code": "77459", "country": "US", "state": "TX", "display_address": ["5932 Hwy 6 S", "Missouri City, TX 77459"]}, "phone": "+12812616665", "display_phone": "(281) 261-6665", "distance": 10229.54087032738}, {"id": "pQGq7YdKv2gkNJJMImJ0nQ", "alias": "daddys-pizza-missouri-city", "name": "Daddy's Pizza", "image_url": "", "is_closed": false, "url": "https://www.yelp.com/biz/daddys-pizza-missouri-city?adjust_creative=rZiFgfUX1eajVOVygdFykg&utm_campaign=yelp_api_v3&utm_medium=api_v3_business_search&utm_source=rZiFgfUX1eajVOVygdFykg", "review_count": 6, "categories": [{"alias": "pizza", "title": "Pizza"}], "rating": 1.5, "coordinates": {"latitude": 29.5836194604635, "longitude": -95.5640649050474}, "transactions": [], "price": "$", "location": {"address1": "2447 Fm 1092", "address2": "", "address3": "", "city": "Missouri City", "zip_code": "77459", "country": "US", "state": "TX", "display_address": ["2447 Fm 1092", "Missouri City, TX 77459"]}, "phone": "+12814999400", "display_phone": "(281) 499-9400", "distance": 10452.567921547114}, {"id": "hXI0ttOLMTImwn9CXs2CtQ", "alias": "sonic-drive-in-houston-59", "name": "Sonic Drive-In", "image_url": "https://s3-media3.fl.yelpcdn.com/bphoto/Iv2JEJWNL0MsaXZJgRM-CQ/o.jpg", "is_closed": false, "url": "https://www.yelp.com/biz/sonic-drive-in-houston-59?adjust_creative=rZiFgfUX1eajVOVygdFykg&utm_campaign=yelp_api_v3&utm_medium=api_v3_business_search&utm_source=rZiFgfUX1eajVOVygdFykg", "review_count": 29, "categories": [{"alias": "hotdogs", "title": "Fast Food"}, {"alias": "burgers", "title": "Burgers"}, {"alias": "icecream", "title": "Ice Cream & Frozen Yogurt"}], "rating": 1.5, "coordinates": {"latitude": 29.6160260912352, "longitude": -95.4191196747524}, "transactions": ["delivery", "pickup"], "price": "$", "location": {"address1": "13280 Almeda Rd", "address2": null, "address3": null, "city": "Houston", "zip_code": "77045", "country": "US", "state": "TX", "display_address": ["13280 Almeda Rd", "Houston, TX 77045"]}, "phone": "+17134345482", "display_phone": "(713) 434-5482", "distance": 10003.401708913998}, {"id": "feXkqu3JfNe5VC0aajWl4g", "alias": "chilis-missouri-city", "name": "Chili's", "image_url": "https://s3-media1.fl.yelpcdn.com/bphoto/ND0G-r_TD9rZsZ_kqKXCZg/o.jpg", "is_closed": false, "url": "https://www.yelp.com/biz/chilis-missouri-city?adjust_creative=rZiFgfUX1eajVOVygdFykg&utm_campaign=yelp_api_v3&utm_medium=api_v3_business_search&utm_source=rZiFgfUX1eajVOVygdFykg", "review_count": 158, "categories": [{"alias": "bars", "title": "Bars"}, {"alias": "tex-mex", "title": "Tex-Mex"}, {"alias": "tradamerican", "title": "American (Traditional)"}], "rating": 2.0, "coordinates": {"latitude": 29.569037, "longitude": -95.568351}, "transactions": ["delivery", "pickup"], "price": "$$", "location": {"address1": "5788 Highway 6", "address2": "", "address3": "", "city": "Missouri City", "zip_code": "77459", "country": "US", "state": "TX", "display_address": ["5788 Highway 6", "Missouri City, TX 77459"]}, "phone": "+12814990227", "display_phone": "(281) 499-0227", "distance": 10151.36016503849}, {"id": "ss4gpWEp5nCPNVzTMpbYjw", "alias": "j-and-v-asian-cafe-missouri-city", "name": "J & V Asian Cafe", "image_url": "https://s3-media4.fl.yelpcdn.com/bphoto/MODPJkmMbZ_ncVTWuoJRQw/o.jpg", "is_closed": false, "url": "https://www.yelp.com/biz/j-and-v-asian-cafe-missouri-city?adjust_creative=rZiFgfUX1eajVOVygdFykg&utm_campaign=yelp_api_v3&utm_medium=api_v3_business_search&utm_source=rZiFgfUX1eajVOVygdFykg", "review_count": 1, "categories": [{"alias": "cajun", "title": "Cajun/Creole"}, {"alias": "asianfusion", "title": "Asian Fusion"}], "rating": 1.0, "coordinates": {"latitude": 29.5993394545829, "longitude": -95.4921817034483}, "transactions": [], "location": {"address1": "7046 W Fuqua St", "address2": "", "address3": null, "city": "Missouri City", "zip_code": "77489", "country": "US", "state": "TX", "display_address": ["7046 W Fuqua St", "Missouri City, TX 77489"]}, "phone": "+18322435713", "display_phone": "(832) 243-5713", "distance": 7196.769441089891}, {"id": "HD0yiLKyUfXsK8eMZ7z4Xg", "alias": "wingstreet-missouri-city-2", "name": "Wingstreet", "image_url": "", "is_closed": false, "url": "https://www.yelp.com/biz/wingstreet-missouri-city-2?adjust_creative=rZiFgfUX1eajVOVygdFykg&utm_campaign=yelp_api_v3&utm_medium=api_v3_business_search&utm_source=rZiFgfUX1eajVOVygdFykg", "review_count": 2, "categories": [{"alias": "pizza", "title": "Pizza"}], "rating": 1.0, "coordinates": {"latitude": 29.594666, "longitude": -95.527199}, "transactions": [], "location": {"address1": "2292 Texas Pkwy", "address2": "", "address3": "", "city": "Missouri City", "zip_code": "77489", "country": "US", "state": "TX", "display_address": ["2292 Texas Pkwy", "Missouri City, TX 77489"]}, "phone": "+12812616611", "display_phone": "(281) 261-6611", "distance": 8435.633766021983}, {"id": "-pwUyITIm04_KARhc8boCg", "alias": "sonic-drive-in-pearland-8", "name": "Sonic Drive-In", "image_url": "https://s3-media2.fl.yelpcdn.com/bphoto/Q-CAFuSZP0YPRNL1812UbA/o.jpg", "is_closed": false, "url": "https://www.yelp.com/biz/sonic-drive-in-pearland-8?adjust_creative=rZiFgfUX1eajVOVygdFykg&utm_campaign=yelp_api_v3&utm_medium=api_v3_business_search&utm_source=rZiFgfUX1eajVOVygdFykg", "review_count": 55, "categories": [{"alias": "hotdogs", "title": "Fast Food"}, {"alias": "burgers", "title": "Burgers"}, {"alias": "icecream", "title": "Ice Cream & Frozen Yogurt"}], "rating": 1.5, "coordinates": {"latitude": 29.5566293, "longitude": -95.3766872}, "transactions": ["delivery", "pickup"], "price": "$", "location": {"address1": "10101 Broadway St", "address2": null, "address3": null, "city": "Pearland", "zip_code": "77584", "country": "US", "state": "TX", "display_address": ["10101 Broadway St", "Pearland, TX 77584"]}, "phone": "+17134361891", "display_phone": "(713) 436-1891", "distance": 9253.84274508333}, {"id": "jLvTUujTbC9-XVwHxDklDA", "alias": "red-robin-gourmet-burgers-and-brews-pearland", "name": "Red Robin Gourmet Burgers and Brews", "image_url": "https://s3-media3.fl.yelpcdn.com/bphoto/euNfNzWGYX4m7KSSRF1R3w/o.jpg", "is_closed": false, "url": "https://www.yelp.com/biz/red-robin-gourmet-burgers-and-brews-pearland?adjust_creative=rZiFgfUX1eajVOVygdFykg&utm_campaign=yelp_api_v3&utm_medium=api_v3_business_search&utm_source=rZiFgfUX1eajVOVygdFykg", "review_count": 141, "categories": [{"alias": "burgers", "title": "Burgers"}, {"alias": "tradamerican", "title": "American (Traditional)"}], "rating": 3.0, "coordinates": {"latitude": 29.55265, "longitude": -95.3939}, "transactions": ["delivery", "pickup"], "price": "$$", "location": {"address1": "11200 Broadway St", "address2": "", "address3": "", "city": "Pearland", "zip_code": "77584", "country": "US", "state": "TX", "display_address": ["11200 Broadway St", "Pearland, TX 77584"]}, "phone": "+17133401272", "display_phone": "(713) 340-1272", "distance": 7532.031410413715}, {"id": "HMmypMOzSmUYuwBZsvEvlQ", "alias": "sonic-drive-in-missouri-city-3", "name": "Sonic Drive-In", "image_url": "https://s3-media1.fl.yelpcdn.com/bphoto/I1prg9rdzPNOrhzzd7XxCA/o.jpg", "is_closed": false, "url": "https://www.yelp.com/biz/sonic-drive-in-missouri-city-3?adjust_creative=rZiFgfUX1eajVOVygdFykg&utm_campaign=yelp_api_v3&utm_medium=api_v3_business_search&utm_source=rZiFgfUX1eajVOVygdFykg", "review_count": 54, "categories": [{"alias": "burgers", "title": "Burgers"}, {"alias": "hotdogs", "title": "Fast Food"}, {"alias": "icecream", "title": "Ice Cream & Frozen Yogurt"}], "rating": 1.5, "coordinates": {"latitude": 29.5696977270304, "longitude": -95.567123}, "transactions": [], "price": "$", "location": {"address1": "5805 Highway 6 S", "address2": "", "address3": "", "city": "Missouri City", "zip_code": "77459", "country": "US", "state": "TX", "display_address": ["5805 Highway 6 S", "Missouri City, TX 77459"]}, "phone": "+12814993282", "display_phone": "(281) 499-3282", "distance": 10065.70097864086}, {"id": "2fLNuRe2-uhGuCTmMqYU-g", "alias": "dennys-missouri-city", "name": "Denny's", "image_url": "https://s3-media4.fl.yelpcdn.com/bphoto/zgDfR-qSmN8XwVX1iGaHbQ/o.jpg", "is_closed": false, "url": "https://www.yelp.com/biz/dennys-missouri-city?adjust_creative=rZiFgfUX1eajVOVygdFykg&utm_campaign=yelp_api_v3&utm_medium=api_v3_business_search&utm_source=rZiFgfUX1eajVOVygdFykg", "review_count": 91, "categories": [{"alias": "tradamerican", "title": "American (Traditional)"}, {"alias": "breakfast_brunch", "title": "Breakfast & Brunch"}, {"alias": "diners", "title": "Diners"}], "rating": 2.0, "coordinates": {"latitude": 29.567578, "longitude": -95.565296}, "transactions": ["delivery", "pickup"], "price": "$", "location": {"address1": "6131 Highway 6 S", "address2": "", "address3": "", "city": "Missouri City", "zip_code": "77459", "country": "US", "state": "TX", "display_address": ["6131 Highway 6 S", "Missouri City, TX 77459"]}, "phone": "+12812082231", "display_phone": "(281) 208-2231", "distance": 9819.72799921558}, {"id": "vJgd4vnYe3MMCFaB830fQg", "alias": "baytown-seafood-restaurant-missouri-city", "name": "Baytown Seafood Restaurant", "image_url": "https://s3-media2.fl.yelpcdn.com/bphoto/Cd91Yz3YS061SNqnbS8t3g/o.jpg", "is_closed": false, "url": "https://www.yelp.com/biz/baytown-seafood-restaurant-missouri-city?adjust_creative=rZiFgfUX1eajVOVygdFykg&utm_campaign=yelp_api_v3&utm_medium=api_v3_business_search&utm_source=rZiFgfUX1eajVOVygdFykg", "review_count": 75, "categories": [{"alias": "seafood", "title": "Seafood"}], "rating": 3.0, "coordinates": {"latitude": 29.5842271463842, "longitude": -95.5640782929686}, "transactions": ["delivery"], "price": "$$", "location": {"address1": "2409 Fm 1092 Rd", "address2": "", "address3": "", "city": "Missouri City", "zip_code": "77459", "country": "US", "state": "TX", "display_address": ["2409 Fm 1092 Rd", "Missouri City, TX 77459"]}, "phone": "+12814990622", "display_phone": "(281) 499-0622", "distance": 10463.838028339387}, {"id": "Pql6fHY89HmU2xYit08FIw", "alias": "sonic-drive-in-pearland-7", "name": "Sonic Drive-In", "image_url": "https://s3-media4.fl.yelpcdn.com/bphoto/3sL9Hk2-jZv3eruw7DfY1Q/o.jpg", "is_closed": false, "url": "https://www.yelp.com/biz/sonic-drive-in-pearland-7?adjust_creative=rZiFgfUX1eajVOVygdFykg&utm_campaign=yelp_api_v3&utm_medium=api_v3_business_search&utm_source=rZiFgfUX1eajVOVygdFykg", "review_count": 79, "categories": [{"alias": "hotdogs", "title": "Fast Food"}, {"alias": "burgers", "title": "Burgers"}, {"alias": "icecream", "title": "Ice Cream & Frozen Yogurt"}], "rating": 1.5, "coordinates": {"latitude": 29.580023022486706, "longitude": -95.3947216272354}, "transactions": ["delivery", "pickup"], "price": "$", "location": {"address1": "11309 Shadow Creek Pkwy", "address2": null, "address3": null, "city": "Pearland", "zip_code": "77581", "country": "US", "state": "TX", "display_address": ["11309 Shadow Creek Pkwy", "Pearland, TX 77581"]}, "phone": "+17133400806", "display_phone": "(713) 340-0806", "distance": 8660.337246543324}, {"id": "bAgiCCzQUO4QyD26sX4YUw", "alias": "silverlake-hunan-restaurant-pearland-2", "name": "Silverlake Hunan Restaurant", "image_url": "https://s3-media1.fl.yelpcdn.com/bphoto/o1HT5HtXXNnSzdKKYfaO_w/o.jpg", "is_closed": false, "url": "https://www.yelp.com/biz/silverlake-hunan-restaurant-pearland-2?adjust_creative=rZiFgfUX1eajVOVygdFykg&utm_campaign=yelp_api_v3&utm_medium=api_v3_business_search&utm_source=rZiFgfUX1eajVOVygdFykg", "review_count": 100, "categories": [{"alias": "chinese", "title": "Chinese"}], "rating": 3.0, "coordinates": {"latitude": 29.55656, "longitude": -95.38052}, "transactions": ["delivery"], "price": "$", "location": {"address1": "10223 Broadway St", "address2": "Ste Q", "address3": null, "city": "Pearland", "zip_code": "77584", "country": "US", "state": "TX", "display_address": ["10223 Broadway St", "Ste Q", "Pearland, TX 77584"]}, "phone": "+17134369988", "display_phone": "(713) 436-9988", "distance": 8971.510555034885}, {"id": "xPUTiVph-0PTYL-NAxAvGA", "alias": "old-hickory-inn-missouri-city", "name": "Old Hickory Inn", "image_url": "https://s3-media1.fl.yelpcdn.com/bphoto/rVMKy_GvFuYhejM7DUto5w/o.jpg", "is_closed": false, "url": "https://www.yelp.com/biz/old-hickory-inn-missouri-city?adjust_creative=rZiFgfUX1eajVOVygdFykg&utm_campaign=yelp_api_v3&utm_medium=api_v3_business_search&utm_source=rZiFgfUX1eajVOVygdFykg", "review_count": 82, "categories": [{"alias": "bbq", "title": "Barbeque"}], "rating": 3.5, "coordinates": {"latitude": 29.571845, "longitude": -95.564201}, "transactions": ["delivery", "pickup"], "price": "$$", "location": {"address1": "3334 Fm 1092 Rd", "address2": "Ste 400", "address3": "", "city": "Missouri City", "zip_code": "77459", "country": "US", "state": "TX", "display_address": ["3334 Fm 1092 Rd", "Ste 400", "Missouri City, TX 77459"]}, "phone": "+12814998904", "display_phone": "(281) 499-8904", "distance": 9891.253375417915}, {"id": "D7bjSkrIekLMAv-PB83bGQ", "alias": "chuck-e-cheese-pearland-2", "name": "Chuck E. Cheese", "image_url": "https://s3-media2.fl.yelpcdn.com/bphoto/P_Evbf7N2mowb08t8dGNSA/o.jpg", "is_closed": false, "url": "https://www.yelp.com/biz/chuck-e-cheese-pearland-2?adjust_creative=rZiFgfUX1eajVOVygdFykg&utm_campaign=yelp_api_v3&utm_medium=api_v3_business_search&utm_source=rZiFgfUX1eajVOVygdFykg", "review_count": 52, "categories": [{"alias": "pizza", "title": "Pizza"}, {"alias": "arcades", "title": "Arcades"}, {"alias": "kids_activities", "title": "Kids Activities"}], "rating": 3.0, "coordinates": {"latitude": 29.551846, "longitude": -95.385833}, "transactions": ["delivery", "pickup"], "price": "$", "location": {"address1": "3141 Silverlake Village Dr", "address2": "", "address3": "", "city": "Pearland", "zip_code": "77584", "country": "US", "state": "TX", "display_address": ["3141 Silverlake Village Dr", "Pearland, TX 77584"]}, "phone": "+17133401530", "display_phone": "(713) 340-1530", "distance": 8277.19815890418}, {"id": "td4SMgd8Py86Hob2KoW2iw", "alias": "chick-fil-a-missouri-city", "name": "Chick-fil-A", "image_url": "https://s3-media3.fl.yelpcdn.com/bphoto/XUjLusT_b8ek4tYswdNjaQ/o.jpg", "is_closed": false, "url": "https://www.yelp.com/biz/chick-fil-a-missouri-city?adjust_creative=rZiFgfUX1eajVOVygdFykg&utm_campaign=yelp_api_v3&utm_medium=api_v3_business_search&utm_source=rZiFgfUX1eajVOVygdFykg", "review_count": 130, "categories": [{"alias": "hotdogs", "title": "Fast Food"}, {"alias": "chickenshop", "title": "Chicken Shop"}, {"alias": "salad", "title": "Salad"}], "rating": 3.0, "coordinates": {"latitude": 29.56466, "longitude": -95.56446}, "transactions": [], "price": "$", "location": {"address1": "6124 Highway 6", "address2": "", "address3": "", "city": "Missouri City", "zip_code": "77459", "country": "US", "state": "TX", "display_address": ["6124 Highway 6", "Missouri City, TX 77459"]}, "phone": "+12812617100", "display_phone": "(281) 261-7100", "distance": 9629.523531632827}]